Creation Date,Status,Completion Date,Service Request Number,Type of Service Request,Street Address,ZIP Code,X Coordinate,Y Coordinate,Ward,Police District,Community Area,Latitude,Longitude,Location
1/1/2018,Completed - Dup,1/3/2018,18-00001958,Street Lights - All/Out,5700 N OKETO AVE,60631,1126024.048,1937047.553,41,16,10,41.98360613,-87.81188073,"(41.983606127677454, -87.81188072707522)"
1/1/2018,Completed,1/3/2018,18-00008088,Street Lights - All/Out,4156 N KEDZIE AVE,60618,1154308.287,1927538.63,33,17,16,41.95699343,-87.70811048,"(41.95699343307391, -87.70811048065795)"
1/1/2018,Completed,1/3/2018,18-00010082,Street Lights - All/Out,440 N CARPENTER ST,60642,1169374.378,1903249.272,27,12,24,41.8900272,-87.65343129,"(41.89002720190363, -87.65343129489695)"
1/1/2018,Completed,1/3/2018,18-00011686,Street Lights - All/Out,10700 S AVENUE C,60617,1204454.017,1834622.68,10,4,52,41.70087854,-87.52697049,"(41.70087854245769, -87.52697049423276)"
1/1/2018,Completed,1/3/2018,18-00011804,Street Lights - All/Out,8048 S PRINCETON AVE,60620,1175684.098,1851586.82,17,6,44,41.74812133,-87.63180838,"(41.748121326763915, -87.63180838484665)"
1/1/2018,Completed,1/3/2018,18-00013765,Street Lights - All/Out,1799 N VINE ST,60614,1171750.32,1911962.85,43,18,7,41.91388576,-87.64444887,"(41.9138857614529, -87.6444488666253)"
1/2/2018,Completed,1/3/2018,18-00015726,Street Lights - All/Out,125 S LEAVITT ST,60612,1161762.13,1899393.984,27,12,28,41.87961007,-87.68149438,"(41.879610073057414, -87.68149438403097)"
1/2/2018,Completed,1/3/2018,18-00015741,Street Lights - All/Out,1000 W AINSLIE ST,60640,1168743.557,1932964.34,48,20,3,41.9715805,-87.65488442,"(41.971580496098454, -87.65488441955053)"
1/2/2018,Completed,1/3/2018,18-00015743,Street Lights - All/Out,606 W WELLINGTON AVE,60657,1171666.826,1920205.993,44,19,6,41.93650716,-87.64451233,"(41.93650716036481, -87.64451233418173)"
1/2/2018,Completed,1/3/2018,18-00015751,Street Lights - All/Out,3023 N BROADWAY,60657,1171722.326,1920436.493,44,19,6,41.93713844,-87.64430156,"(41.93713843768616, -87.64430155837553)"
1/2/2018,Completed,1/3/2018,18-00015769,Street Lights - All/Out,1800 S CANAL ST,60616,1173416.671,1891488.307,25,12,31,41.85766548,-87.63893572,"(41.85766547559627, -87.63893572324801)"
1/2/2018,Completed,1/3/2018,18-00015774,Street Lights - All/Out,5000 N SHERIDAN RD,60640,1168726.6,1933595.613,48,20,3,41.9733131,-87.65492839,"(41.973313096616586, -87.65492839305467)"
1/2/2018,Completed,1/3/2018,18-00015784,Street Lights - All/Out,2200 W 19TH ST,60608,1162003.836,1890711.588,25,12,31,41.85577973,-87.6808492,"(41.85577972743827, -87.68084919591855)"
1/2/2018,Completed,1/3/2018,18-00015840,Street Lights - All/Out,3926 N NOTTINGHAM AVE,60634,1128028.113,1925285.396,38,16,17,41.95129579,-87.80477684,"(41.95129579440333, -87.80477684274335)"
1/2/2018,Completed,1/3/2018,18-00015844,Street Lights - All/Out,7128 W WAVELAND AVE,60634,1128093.419,1923767.06,38,16,17,41.9471282,-87.80457121,"(41.94712820058492, -87.80457120882383)"
1/2/2018,Completed,1/3/2018,18-00015864,Street Lights - All/Out,3228 N NATCHEZ AVE,60634,1132482.38,1920757.965,36,16,17,41.93879548,-87.78850858,"(41.93879547794713, -87.78850857531435)"
1/2/2018,Completed,1/3/2018,18-00022278,Street Lights - All/Out,13237 S AVENUE N,60633,1201412.329,1817786.034,10,4,55,41.65475475,-87.53867636,"(41.654754745251736, -87.53867635545073)"
1/2/2018,Completed,1/3/2018,18-00022384,Street Lights - All/Out,7757 S THROOP ST,60620,1169228.488,1853336.651,17,6,71,41.7530651,-87.65541332,"(41.75306509835118, -87.65541331841796)"
1/2/2018,Completed,1/3/2018,18-00027523,Street Lights - All/Out,7347 S DANTE AVE,60619,1187144.15,1856564.456,8,3,43,41.76151636,-87.58965779,"(41.761516360842236, -87.5896577907901)"
11/9/2017,Completed - Dup,1/4/2018,17-07581536,Street Lights - All/Out,2925 W WAVELAND AVE,60618,1156105.806,1924452.859,33,17,16,41.9484897,-87.70158587,"(41.94848970440521, -87.70158587370099)"
12/19/2017,Completed,1/4/2018,17-08464674,Street Lights - All/Out,9901 S CRILLY DR,60617,1203777.955,1840061.585,10,4,52,41.71582066,-87.52925996,"(41.71582066454261, -87.52925996145032)"
12/19/2017,Completed,1/4/2018,17-08465008,Street Lights - All/Out,403 S ABERDEEN ST,60607,1169113.851,1898336.753,25,12,28,41.87655256,-87.65453076,"(41.87655256033501, -87.65453076312659)"
12/20/2017,Completed,1/4/2018,17-08482750,Street Lights - All/Out,1055 N HOMAN AVE,60651,1153544.17,1906941.73,26,11,23,41.90048915,-87.71146879,"(41.90048914754619, -87.71146879086484)"
12/26/2017,Completed,1/4/2018,17-08597209,Street Lights - All/Out,2300 S PRINCETON AVE,60616,1174574.134,1889044.997,25,9,34,41.85093509,-87.63476015,"(41.85093508636327, -87.63476014524277)"
12/26/2017,Completed,1/4/2018,17-08611353,Street Lights - All/Out,7435 N OVERHILL AVE,60631,1124074.915,1948845.56,41,16,9,42.01601335,-87.81878871,"(42.01601334878656, -87.81878870884411)"
12/27/2017,Completed,1/4/2018,17-08618769,Street Lights - All/Out,5734 S OAK PARK AVE,60638,1132039.126,1865763.016,13,8,56,41.78788877,-87.79141353,"(41.78788877477672, -87.79141352869749)"
12/27/2017,Completed,1/4/2018,17-08626395,Street Lights - All/Out,13243 S AVENUE L,60633,1202076.91,1817715.1,10,4,55,41.65454326,-87.5362471,"(41.65454325734388, -87.53624709758785)"
12/28/2017,Completed - Dup,1/4/2018,17-08641944,Street Lights - All/Out,13200 S AVENUE L,60633,1202075.71,1817961.3,10,4,55,41.65521889,-87.53624316,"(41.655218887101, -87.53624315834784)"
12/28/2017,Completed,1/4/2018,17-08632713,Street Lights - All/Out,8735 S BEVERLY AVE,60620,1164736.389,1846659.383,21,22,71,41.73483764,-87.6720632,"(41.73483763886852, -87.67206319508101)"
12/29/2017,Completed - Dup,1/4/2018,17-08655091,Street Lights - All/Out,13200 S AVENUE L,60633,1202075.71,1817961.3,10,4,55,41.65521889,-87.53624316,"(41.655218887101, -87.53624315834784)"
12/29/2017,Completed,1/4/2018,17-08656184,Street Lights - All/Out,3412 S INDIANA AVE,60616,1178162.149,1882376.702,3,2,35,41.83255595,-87.62179428,"(41.83255595470175, -87.62179428096499)"
12/29/2017,Completed,1/4/2018,17-08671677,Street Lights - All/Out,1700 W 89TH ST,60620,1166566.309,1845670.632,21,22,71,41.73208558,-87.66538724,"(41.73208558048885, -87.66538724147796)"
12/30/2017,Completed,1/4/2018,17-08677748,Street Lights - All/Out,2210 W 83RD ST,60620,1163044.327,1849575.643,18,6,70,41.74287581,-87.67818089,"(41.74287581151864, -87.67818088580056)"
1/1/2018,Completed,1/4/2018,18-00008658,Street Lights - All/Out,333 W 107TH PL,60628,1176035.59,1833640.584,34,5,49,41.69886658,-87.63105688,"(41.69886657792085, -87.63105687766918)"
1/2/2018,Completed,1/4/2018,18-00015627,Street Lights - All/Out,5304 S CICERO AVE,60638,1145259.64,1869006.773,23,8,56,41.79655127,-87.74285665,"(41.796551273752904, -87.74285664575807)"
1/2/2018,Completed,1/4/2018,18-00015651,Street Lights - All/Out,2211 S KEELER AVE,60623,1148734.467,1888962.748,22,10,29,41.85124706,-87.72959972,"(41.85124706399835, -87.72959971873767)"
1/2/2018,Completed,1/4/2018,18-00015657,Street Lights - All/Out,8700 S INDIANA AVE,60619,1179112.427,1847354.859,9,6,44,41.73643094,-87.6193746,"(41.736430935418454, -87.61937459900821)"
1/2/2018,Completed,1/4/2018,18-00015660,Street Lights - All/Out,3800 W 103RD ST,60655,1152816.746,1836054.62,19,22,74,41.70597925,-87.71601072,"(41.70597924858403, -87.71601071504053)"
1/2/2018,Completed,1/4/2018,18-00015661,Street Lights - All/Out,8800 S INDIANA AVE,60619,1179131.251,1846688.92,9,6,44,41.73460309,-87.61932588,"(41.73460309056543, -87.61932587705454)"
1/2/2018,Completed,1/4/2018,18-00015704,Street Lights - All/Out,10751 S ROCKWELL ST,60655,1160999.335,1833243,19,22,75,41.6980988,-87.68612373,"(41.69809879716344, -87.6861237338351)"
1/2/2018,Completed,1/4/2018,18-00015706,Street Lights - All/Out,4950 S CHICAGO BEACH DR,60615,1188055.65,1872908.71,5,2,39,41.8063446,-87.58579632,"(41.80634459681909, -87.58579631819727)"
1/2/2018,Completed,1/4/2018,18-00015719,Street Lights - All/Out,5000 S SB OUTER LAKE SHORE DR,60615,1188946.83,1872216.191,5,2,39,41.80442296,-87.58255002,"(41.80442296243336, -87.58255002283708)"
1/2/2018,Completed,1/4/2018,18-00015867,Street Lights - All/Out,1100 N LARAMIE AVE,60651,1141493.997,1906831.262,37,15,25,41.90041717,-87.7557329,"(41.90041717355992, -87.75573290476952)"
1/2/2018,Completed,1/4/2018,18-00015874,Street Lights - All/Out,1600 N CICERO AVE,60639,1144089.532,1910204.654,37,25,25,41.90962578,-87.74611445,"(41.90962578189356, -87.74611444691517)"
1/2/2018,Completed,1/4/2018,18-00015878,Street Lights - All/Out,4846 W NORTH AVE,60639,1143765.832,1910196.754,37,25,25,41.90961018,-87.74730379,"(41.90961017842982, -87.74730379497286)"
1/2/2018,Completed,1/4/2018,18-00015900,Street Lights - All/Out,1443 S KOSTNER AVE,60623,1147285.011,1892721.151,24,10,29,41.86158844,-87.73482346,"(41.86158844108259, -87.73482345540029)"
1/2/2018,Completed,1/4/2018,18-00015907,Street Lights - All/Out,1700 N KEELER AVE,60639,1148125.326,1910967.681,26,25,23,41.91164283,-87.73126884,"(41.91164282862574, -87.73126884458321)"
1/2/2018,Completed,1/4/2018,18-00026709,Street Lights - All/Out,523 E 89TH PL,60619,1181297.365,1845752.417,9,6,44,41.73198363,-87.61141903,"(41.73198362895828, -87.6114190299462)"
1/3/2018,Completed,1/4/2018,18-00038741,Street Lights - All/Out,9740 S VAN VLISSINGEN RD,60617,1190845.599,1840774.059,7,4,51,41.71809743,-87.57660076,"(41.71809742905379, -87.57660075580388)"
1/4/2018,Completed,1/4/2018,18-00053006,Street Lights - All/Out,7003 S OGLESBY AVE,60649,1192979.383,1858968.15,5,3,43,41.76797186,-87.56819314,"(41.76797185813039, -87.56819314089849)"
1/5/2018,Completed,1/5/2018,18-00069011,Street Lights - All/Out,1800 W 79TH ST,60620,1165722.451,1852298.953,17,6,71,41.7502926,-87.668291,"(41.750292597430544, -87.66829100171799)"
1/5/2018,Completed,1/5/2018,18-00069071,Street Lights - All/Out,8123 S LAFLIN ST,60620,1167748.257,1850869.552,21,6,71,41.74632691,-87.66090845,"(41.746326913052386, -87.66090844924906)"
12/13/2017,Completed - Dup,1/5/2018,17-08351955,Street Lights - All/Out,125 N CICERO AVE,60644,1144362.779,1900326.921,28,11,25,41.88251502,-87.74535932,"(41.88251502409652, -87.74535932010396)"
12/23/2017,Completed,1/5/2018,17-08569729,Street Lights - All/Out,7525 S CHAMPLAIN AVE,60619,1181867.571,1855258.55,6,6,69,41.75805637,-87.60903702,"(41.758056369615524, -87.6090370242262)"
12/27/2017,Completed,1/5/2018,17-08614868,Street Lights - All/Out,3543 N HARLEM AVE,60634,1127447.114,1922709.142,38,16,17,41.94423606,-87.80697078,"(41.94423606350778, -87.8069707818614)"
12/28/2017,Completed,1/5/2018,17-08641109,Street Lights - All/Out,6200 N LE MAI AVE,60646,1140285.522,1940875.834,39,16,12,41.99386099,-87.75933432,"(41.993860985294276, -87.75933431640955)"
12/29/2017,Completed,1/5/2018,17-08655652,Street Lights - All/Out,3033 W VAN BUREN ST,60612,1156107.861,1898004.621,28,11,27,41.87591349,-87.70229359,"(41.875913489266935, -87.70229359283248)"
12/30/2017,Completed - Dup,1/5/2018,17-08685709,Street Lights - All/Out,5350 S LAFLIN ST,60609,1167236.848,1869589.726,20,9,61,41.79770844,-87.66224713,"(41.79770844228895, -87.66224712663016)"
12/30/2017,Completed,1/5/2018,17-08684699,Street Lights - All/Out,5350 S LAFLIN ST,60609,1167236.848,1869589.726,20,9,61,41.79770844,-87.66224713,"(41.79770844228895, -87.66224712663016)"
1/2/2018,Completed,1/5/2018,18-00014463,Street Lights - All/Out,6800 N CALIFORNIA AVE,60645,1156431.78,1944994.794,50,24,2,42.00485123,-87.69982924,"(42.00485123221907, -87.69982923913578)"
1/2/2018,Completed,1/5/2018,18-00015163,Street Lights - All/Out,6300 S KNOX AVE,60629,1146461.733,1862426.434,13,8,64,41.77847101,-87.73861531,"(41.77847101488801, -87.73861530683645)"
1/2/2018,Completed,1/5/2018,18-00015770,Street Lights - All/Out,1715 N CLARK ST,60614,1174852.481,1911847.391,43,18,7,41.9135,-87.63305567,"(41.91349999735352, -87.63305566670466)"
1/2/2018,Completed,1/5/2018,18-00015816,Street Lights - All/Out,5400 S LAFLIN ST,60609,1167253.693,1868925.846,20,9,61,41.79588632,-87.66220436,"(41.79588631566056, -87.66220436195518)"
1/2/2018,Completed,1/5/2018,18-00021203,Street Lights - All/Out,148 N CICERO AVE,60644,1144356.779,1900551.021,28,15,25,41.88313009,-87.74537571,"(41.88313009413299, -87.74537571463463)"
1/2/2018,Completed,1/5/2018,18-00021677,Street Lights - All/Out,7440 S SANGAMON ST,60621,1171261.069,1855566.002,17,7,68,41.75913853,-87.64789962,"(41.759138534272566, -87.64789961686563)"
1/2/2018,Completed,1/5/2018,18-00021960,Street Lights - All/Out,7621 S MORGAN ST,60620,1170964.631,1854290.236,17,6,71,41.75564414,-87.64902324,"(41.75564414482067, -87.64902323790069)"
1/2/2018,Completed,1/5/2018,18-00031103,Street Lights - All/Out,3951 W MONROE ST,60624,1150062.896,1899368.822,28,11,26,41.87977682,-87.72445315,"(41.87977682290748, -87.72445315314566)"
1/3/2018,Completed - Dup,1/5/2018,18-00046719,Street Lights - All/Out,800 S CANAL ST,60607,1173260.864,1896721.271,25,1,28,41.87202856,-87.63935235,"(41.87202856129669, -87.63935235000454)"
1/3/2018,Completed,1/5/2018,18-00032843,Street Lights - All/Out,1761 W 91ST ST,60620,1166044.723,1844338.475,19,22,72,41.72844103,-87.6673358,"(41.72844103139366, -87.66733579556119)"
1/3/2018,Completed,1/5/2018,18-00032873,Street Lights - All/Out,7849 S LAFLIN ST,60620,1167477.913,1852679.006,17,6,71,41.7512981,-87.66184731,"(41.75129810129319, -87.66184731125365)"
1/3/2018,Completed,1/5/2018,18-00033303,Street Lights - All/Out,2121 S TROY ST,60623,1155685.67,1889581.9,24,10,30,41.85280914,-87.70407041,"(41.85280914495736, -87.7040704102961)"
1/3/2018,Completed,1/5/2018,18-00036259,Street Lights - All/Out,817 W 129TH PL,60643,1173165.38,1818902.894,34,5,53,41.65848771,-87.64199919,"(41.65848770889924, -87.64199919030362)"
1/3/2018,Completed,1/5/2018,18-00039604,Street Lights - All/Out,4901 W 63RD ST,60638,1144787.45,1862382.832,13,8,64,41.77838297,-87.74475452,"(41.778382973408476, -87.74475452378651)"
1/3/2018,Completed,1/5/2018,18-00040822,Street Lights - All/Out,800 S CANAL ST,60607,1173260.864,1896721.271,25,1,28,41.87202856,-87.63935235,"(41.87202856129669, -87.63935235000454)"
1/3/2018,Completed,1/5/2018,18-00044885,Street Lights - All/Out,337 W 105TH PL,60628,1175894.654,1834965.968,34,5,49,41.70250678,-87.63153337,"(41.70250677702576, -87.63153337175494)"
1/4/2018,Completed - Dup,1/5/2018,18-00053252,Street Lights - All/Out,5400 S LAFLIN ST,60609,1167253.693,1868925.846,20,9,61,41.79588632,-87.66220436,"(41.79588631566056, -87.66220436195518)"
1/4/2018,Completed,1/5/2018,18-00053093,Street Lights - All/Out,5706 W NORTH AVE,60639,1138043,1910060.877,29,25,25,41.90934269,-87.76833063,"(41.90934268563747, -87.7683306286114)"
1/4/2018,Completed,1/5/2018,18-00053097,Street Lights - All/Out,717 S CENTRAL PARK AVE,60624,1152492.712,1896610.431,24,11,27,41.87215985,-87.71560404,"(41.87215984777619, -87.71560403828835)"
1/4/2018,Completed,1/5/2018,18-00053335,Street Lights - All/Out,6438 S MAY ST,60621,1169757.215,1862103.155,16,7,68,41.77711005,-87.65322173,"(41.77711005347304, -87.65322172537124)"
1/4/2018,Completed,1/5/2018,18-00055764,Street Lights - All/Out,6800 W 63RD ST,60638,1132170.799,1861989.01,23,8,64,41.77752991,-87.791018,"(41.777529908785155, -87.79101800033297)"
1/4/2018,Completed,1/5/2018,18-00057552,Street Lights - All/Out,3400 W LAKE ST,60624,1153681.358,1901165.781,28,11,27,41.88463665,-87.71111874,"(41.884636648095054, -87.71111873728827)"
1/4/2018,Completed,1/5/2018,18-00059007,Street Lights - All/Out,7900 S WOOD ST,60620,1165722.451,1852298.953,17,6,71,41.7502926,-87.668291,"(41.750292597430544, -87.66829100171799)"
1/4/2018,Completed,1/5/2018,18-00059607,Street Lights - All/Out,1900 W BERWYN AVE,60640,1162858.916,1935219.738,40,20,4,41.97789524,-87.67645936,"(41.97789523657769, -87.67645936465829)"
1/2/2018,Completed,1/6/2018,18-00027033,Street Lights - All/Out,2949 W 63RD ST,60629,1157713.771,1862720.698,17,8,66,41.77905757,-87.69735627,"(41.7790575706208, -87.69735627135533)"
1/3/2018,Completed,1/6/2018,18-00032839,Street Lights - All/Out,1500 W 54TH ST,60609,1167253.693,1868925.846,20,9,61,41.79588632,-87.66220436,"(41.79588631566056, -87.66220436195518)"
1/3/2018,Completed,1/6/2018,18-00038380,Street Lights - All/Out,5443 S KENNETH AVE,60632,1147621.037,1868147.04,23,8,62,41.7941472,-87.73421903,"(41.79414719566202, -87.73421902916073)"
1/3/2018,Completed,1/6/2018,18-00046739,Street Lights - All/Out,4833 S KILPATRICK AVE,60632,1145840.697,1872170.107,14,8,56,41.80522099,-87.74064583,"(41.805220986751735, -87.7406458335759)"
1/3/2018,Completed,1/6/2018,18-00048339,Street Lights - All/Out,9922 S TALMAN AVE,60655,1160448.492,1838655.56,19,22,72,41.71296315,-87.68799214,"(41.712963150353104, -87.68799213716552)"
1/4/2018,Completed,1/6/2018,18-00054923,Street Lights - All/Out,10138 S TALMAN AVE,60655,1160492.588,1837194.58,19,22,72,41.70895306,-87.68787075,"(41.70895306205715, -87.68787075282299)"
1/4/2018,Completed,1/6/2018,18-00057755,Street Lights - All/Out,2458 S SACRAMENTO AVE,60623,1156750.387,1887525.466,12,10,30,41.84714458,-87.70021819,"(41.84714458221007, -87.70021819243964)"
1/4/2018,Completed,1/6/2018,18-00057857,Street Lights - All/Out,2400 S SPAULDING AVE,60623,1154740.24,1887862.592,12,10,30,41.84811012,-87.70758644,"(41.848110123045224, -87.7075864401317)"
1/5/2018,Completed,1/6/2018,18-00068943,Street Lights - All/Out,6700 S PULASKI RD,60629,1150854.887,1859870.986,13,8,65,41.77137395,-87.72257606,"(41.77137395489257, -87.7225760618405)"
1/4/2018,Completed,1/7/2018,18-00055581,Street Lights - All/Out,1757 N LAWNDALE AVE,60647,1151439.056,1911434.784,26,25,23,41.91286013,-87.71908285,"(41.91286012695009, -87.71908285176336)"
1/4/2018,Completed,1/7/2018,18-00056331,Street Lights - All/Out,3200 W DIVERSEY AVE,60647,1154560.565,1918443.038,35,14,21,41.93202943,-87.7074272,"(41.9320294301393, -87.70742719620522)"
1/6/2018,Completed,1/8/2018,18-00096069,Street Lights - All/Out,420 E 66TH ST,60637,1180266.136,1861347.181,20,3,42,41.77480106,-87.61471964,"(41.774801057168425, -87.61471963524251)"
1/8/2018,Completed - Dup,1/8/2018,18-00120540,Street Lights - All/Out,3022 W LAKE ST,60612,1156209.943,1900990.657,27,12,27,41.88410541,-87.70183811,"(41.88410540683144, -87.70183811182618)"
12/26/2017,Completed,1/8/2018,17-08611938,Street Lights - All/Out,2335 W 81ST PL,60620,1162104.45,1850392.378,18,8,70,41.74513664,-87.68160198,"(41.745136643868314, -87.68160197636479)"
12/27/2017,Completed,1/8/2018,17-08614981,Street Lights - All/Out,2427 W CULLERTON ST,60608,1160554.234,1890342.959,28,10,31,41.85479828,-87.68618014,"(41.85479827601619, -87.68618014297006)"
1/2/2018,Completed,1/8/2018,18-00015758,Street Lights - All/Out,521 W ROOSEVELT RD,60607,1173090.952,1894977.227,11,1,28,41.86724655,-87.64002788,"(41.867246549006325, -87.64002787544685)"
1/2/2018,Completed,1/8/2018,18-00027237,Street Lights - All/Out,3603 W 81ST PL,60652,1153742.8,1850309.8,18,8,70,41.74507974,-87.71224288,"(41.74507973908752, -87.71224288459243)"
1/3/2018,Completed,1/8/2018,18-00033282,Street Lights - All/Out,11233 S AVENUE H,60617,1202876.536,1831090.957,10,4,52,41.69122758,-87.53286669,"(41.691227577888235, -87.5328666920072)"
1/3/2018,Completed,1/8/2018,18-00049361,Street Lights - All/Out,1910 W BARRY AVE,60657,1163064.529,1920601.445,32,19,5,41.93777762,-87.67611552,"(41.93777761719715, -87.67611552135739)"
1/4/2018,Completed,1/8/2018,18-00055116,Street Lights - All/Out,5854 S MICHIGAN AVE,60637,1178157.591,1866229.744,20,2,40,41.7882474,-87.62230118,"(41.788247395160624, -87.62230118031646)"
1/4/2018,Completed,1/8/2018,18-00056345,Street Lights - All/Out,3116 W LAKE ST,60612,1155579.868,1901032.3,27,12,27,41.88423238,-87.7041507,"(41.884232378235936, -87.70415070440625)"
1/5/2018,Completed,1/8/2018,18-00068891,Street Lights - All/Out,4155 W 58TH PL,60629,1149665.239,1865487,13,8,62,41.7868083,-87.72679175,"(41.78680829617665, -87.72679175142531)"
1/5/2018,Completed,1/8/2018,18-00069199,Street Lights - All/Out,1667 S TROY ST,60623,1155631.69,1891459.81,24,10,29,41.85796343,-87.70421803,"(41.85796342517603, -87.70421803445379)"
1/5/2018,Completed,1/8/2018,18-00069206,Street Lights - All/Out,3250 W MONROE ST,60624,1154757.442,1899353.821,28,11,27,41.87964297,-87.70721573,"(41.87964297135521, -87.70721573086928)"
1/5/2018,Completed,1/8/2018,18-00076329,Street Lights - All/Out,2300 S PRINCETON AVE,60616,1174574.134,1889044.997,25,9,34,41.85093509,-87.63476015,"(41.85093508636327, -87.63476014524277)"
1/5/2018,Completed,1/8/2018,18-00080648,Street Lights - All/Out,3416 W MELROSE ST,60618,1153009.88,1921403.362,35,17,21,41.94018371,-87.71304706,"(41.940183713026265, -87.71304706214381)"
1/5/2018,Completed,1/8/2018,18-00081714,Street Lights - All/Out,7152 W WAVELAND AVE,60634,1127871.079,1923759.894,38,16,17,41.9471123,-87.80538865,"(41.94711229624029, -87.80538864962891)"
1/5/2018,Completed,1/8/2018,18-00084631,Street Lights - All/Out,2400 N ASHLAND AVE,60614,1165268.618,1916017.215,32,19,7,41.92515158,-87.66814581,"(41.92515157985103, -87.66814581468773)"
11/4/2017,Completed - Dup,1/9/2018,17-07444965,Street Lights - All/Out,3424 W CARROLL AVE,60624,1153491.132,1902190.049,28,11,27,41.88745113,-87.71179003,"(41.887451127277, -87.7117900346716)"
11/8/2017,Completed - Dup,1/9/2018,17-07556819,Street Lights - All/Out,3410 W CARROLL AVE,60624,1153585.032,1902192.549,28,11,27,41.88745612,-87.71144514,"(41.8874561206603, -87.71144513708087)"
11/15/2017,Completed - Dup,1/9/2018,17-07720529,Street Lights - All/Out,3422 W CARROLL AVE,60624,1153504.532,1902190.449,28,11,27,41.88745196,-87.71174081,"(41.88745195856919, -87.71174081491142)"
11/29/2017,Completed,1/9/2018,17-08051930,Street Lights - All/Out,940 N LAWLER AVE,60651,1142519.856,1905784.013,37,15,25,41.89752439,-87.75199089,"(41.897524385504134, -87.75199089296052)"
1/5/2018,Completed,1/9/2018,18-00083130,Street Lights - All/Out,7816 W OLIVE AVE,60631,1123146.431,1936555.99,41,16,10,41.98230481,-87.82247513,"(41.98230481342735, -87.8224751331257)"
1/7/2018,Completed,1/9/2018,18-00113355,Street Lights - All/Out,3200 N PULASKI RD,60641,1149166.094,1920979.166,30,17,16,41.93909514,-87.72718536,"(41.93909513603476, -87.72718536275045)"
1/8/2018,Completed - Dup,1/9/2018,18-00130994,Street Lights - All/Out,5524 S HONORE ST,60636,1164963.06,1867942.873,15,7,67,41.79323768,-87.67063204,"(41.79323768461846, -87.67063203638546)"
1/8/2018,Completed,1/9/2018,18-00118790,Street Lights - All/Out,3999 W BELMONT AVE,60618,1149166.094,1920979.166,30,25,21,41.93909514,-87.72718536,"(41.93909513603476, -87.72718536275045)"
1/8/2018,Completed,1/9/2018,18-00120353,Street Lights - All/Out,732 E 63RD ST,60637,1182308.156,1863401.577,20,3,42,41.78039145,-87.60717038,"(41.780391445173024, -87.60717038005036)"
1/8/2018,Completed,1/9/2018,18-00120488,Street Lights - All/Out,2119 N ALBANY AVE,60647,1155178.953,1913889.201,32,14,22,41.91952093,-87.70527727,"(41.91952093346382, -87.70527727103757)"
1/8/2018,Completed,1/9/2018,18-00120492,Street Lights - All/Out,2151 W 110TH ST,60643,1163942.664,1831789.257,19,22,75,41.69404828,-87.67538737,"(41.69404827553682, -87.6753873738894)"
1/8/2018,Completed,1/9/2018,18-00120542,Street Lights - All/Out,3800 S EMERALD AVE,60609,1171924.596,1879679.595,11,9,60,41.82529434,-87.64475999,"(41.82529434259639, -87.64475998516315)"
1/8/2018,Completed,1/9/2018,18-00120545,Street Lights - All/Out,5629 N ARTESIAN AVE,60659,1158977.585,1937304.321,40,20,2,41.98369621,-87.69067543,"(41.983696211134664, -87.6906754288564)"
1/8/2018,Completed,1/9/2018,18-00120547,Street Lights - All/Out,3832 S UNION AVE,60609,1172264.148,1879474.69,11,9,60,41.82472459,-87.6435203,"(41.82472458898479, -87.6435203020308)"
1/8/2018,Completed,1/9/2018,18-00120565,Street Lights - All/Out,1633 N ASHLAND AVE,60622,1165426.991,1910947.597,32,14,24,41.91123686,-87.66770846,"(41.91123686013445, -87.66770846215434)"
1/8/2018,Completed,1/9/2018,18-00120602,Street Lights - All/Out,2221 E 73RD ST,60649,1192372.988,1856996.598,7,3,43,41.76257655,-87.5704799,"(41.76257654851798, -87.57047990408711)"
1/8/2018,Completed,1/9/2018,18-00120612,Street Lights - All/Out,8300 S STONY ISLAND AVE,60617,1188251.724,1850263.025,8,4,45,41.7441983,-87.58579915,"(41.74419830110757, -87.58579915492847)"
1/8/2018,Completed,1/9/2018,18-00120618,Street Lights - All/Out,920 W NORTH AVE,60642,1169837.08,1910847.4,2,18,7,41.91086686,-87.65151029,"(41.910866858296515, -87.65151028867156)"
1/8/2018,Completed,1/9/2018,18-00122960,Street Lights - All/Out,5301 S TALMAN AVE,60632,1159604.126,1869413.543,14,9,63,41.79738508,-87.69024248,"(41.79738507900316, -87.69024247816353)"
1/8/2018,Completed,1/9/2018,18-00126436,Street Lights - All/Out,5524 S HONORE ST,60636,1164963.06,1867942.873,15,7,67,41.79323768,-87.67063204,"(41.79323768461846, -87.67063203638546)"
1/8/2018,Completed,1/9/2018,18-00127674,Street Lights - All/Out,1737 W 105TH ST,60643,1166615.49,1835033.96,19,22,72,41.70289584,-87.66550933,"(41.702895836556635, -87.66550932594576)"
1/8/2018,Completed,1/9/2018,18-00127978,Street Lights - All/Out,5500 S STATE ST,60621,1177214.893,1868427.75,3,2,40,41.79430028,-87.62569133,"(41.7943002821255, -87.62569132898986)"
1/8/2018,Completed,1/9/2018,18-00128003,Street Lights - All/Out,6500 S STATE ST,60637,1177396.314,1861916.34,20,3,69,41.77642821,-87.62522271,"(41.77642821335983, -87.6252227132104)"
1/8/2018,Completed,1/9/2018,18-00128893,Street Lights - All/Out,1300 E 87TH ST,60619,1186293.86,1847555.341,8,4,45,41.73681459,-87.59305822,"(41.73681458808613, -87.59305822329682)"
1/8/2018,Completed,1/9/2018,18-00129487,Street Lights - All/Out,6800 S KEDVALE AVE,60629,1149875.068,1859184.407,13,8,65,41.76950891,-87.72618555,"(41.76950890673723, -87.7261855527301)"
1/8/2018,Completed,1/9/2018,18-00130913,Street Lights - All/Out,9331 S PEORIA ST,60620,1171956.069,1842883.218,21,22,73,41.72432005,-87.64572388,"(41.72432005074033, -87.64572388288919)"
11/1/2017,Completed - Dup,1/9/2018,17-07343338,Street Lights - All/Out,4530 N LONG AVE,60630,1139515.437,1929746.974,45,16,15,41.96333661,-87.76243988,"(41.96333660999992, -87.76243987989449)"
11/3/2017,Completed,1/9/2018,17-07404843,Street Lights - All/Out,3500 W CARROLL AVE,60624,1152988.488,1902176.933,28,11,27,41.88742511,-87.71363626,"(41.88742510964686, -87.71363625590993)"
1/2/2018,Completed,1/9/2018,18-00025651,Street Lights - All/Out,8456 S KEDZIE AVE,60652,1156523.258,1848272.319,18,8,70,41.73943303,-87.70210951,"(41.73943303184798, -87.70210950986403)"
1/4/2018,Completed,1/9/2018,18-00053007,Street Lights - All/Out,9800 S MARQUETTE AVE,60617,1195949.278,1840520.642,10,4,51,41.71727741,-87.55791663,"(41.71727741152, -87.5579166349332)"
1/4/2018,Completed,1/9/2018,18-00063015,Street Lights - All/Out,5000 S ARTESIAN AVE,60632,1160873.248,1871452.81,14,9,63,41.80295494,-87.68553205,"(41.80295493998081, -87.68553204633416)"
1/4/2018,Completed,1/9/2018,18-00063020,Street Lights - All/Out,2120 N RACINE AVE,60614,1167964.798,1914238.696,2,18,7,41.92021341,-87.65829029,"(41.920213405533886, -87.65829028928225)"
1/4/2018,Completed,1/9/2018,18-00063676,Street Lights - All/Out,3600 N NEVA AVE,60634,1127770.136,1923093.763,38,16,17,41.94528606,-87.80577477,"(41.94528606132575, -87.80577476663018)"
1/4/2018,Completed,1/9/2018,18-00066565,Street Lights - All/Out,11130 S SACRAMENTO AVE,60655,1158283.31,1830660.104,19,22,74,41.69106643,-87.69613847,"(41.691066430445105, -87.69613846867377)"
1/4/2018,Completed,1/9/2018,18-00067075,Street Lights - All/Out,4605 S KARLOV AVE,60632,1149796.502,1873785.655,14,8,57,41.80957852,-87.72609552,"(41.809578515189514, -87.72609552064004)"
1/5/2018,Completed,1/9/2018,18-00069091,Street Lights - All/Out,800 W 53RD ST,60609,1171871.733,1869675.15,20,9,61,41.7978423,-87.6452478,"(41.79784230391737, -87.64524780263764)"
1/5/2018,Completed,1/9/2018,18-00074984,Street Lights - All/Out,4110 N CAMPBELL AVE,60618,1158971.429,1927264.21,47,19,5,41.95614577,-87.69097493,"(41.95614577098522, -87.69097492742362)"
1/5/2018,Completed,1/9/2018,18-00075509,Street Lights - All/Out,3343 W 38TH PL,60632,1154709.8,1878874.403,12,9,58,41.82344603,-87.70793833,"(41.82344603361123, -87.70793832775605)"
1/5/2018,Completed,1/9/2018,18-00077448,Street Lights - All/Out,1800 W HADDON AVE,60622,1164185.584,1907702.14,1,12,24,41.90235745,-87.67236084,"(41.90235744601911, -87.67236083791819)"
1/5/2018,Completed,1/9/2018,18-00078860,Street Lights - All/Out,6715 S KILBOURN AVE,60629,1147533.645,1859694.917,13,8,65,41.77095487,-87.73475525,"(41.770954868284385, -87.73475525393827)"
12/1/2017,Completed,1/10/2018,17-08084351,Street Lights - All/Out,6848 W 57TH ST,60638,1131618.831,1865981.017,23,8,56,41.78849427,-87.7929496,"(41.78849426834954, -87.79294959584732)"
12/28/2017,Completed,1/10/2018,17-08632972,Street Lights - All/Out,7748 S DANTE AVE,60619,1186849.593,1853827.323,5,4,45,41.75401239,-87.59082394,"(41.75401239314067, -87.59082394029996)"
1/9/2018,Completed,1/10/2018,18-00142703,Street Lights - All/Out,10717 S ROCKWELL ST,60655,1160992.04,1833472.155,19,22,75,41.69872779,-87.68614414,"(41.69872778879305, -87.68614413996747)"
1/9/2018,Completed,1/10/2018,18-00142774,Street Lights - All/Out,8030 S DOBSON AVE,60619,1184618.392,1851970.08,8,6,44,41.74896848,-87.59905853,"(41.74896848185287, -87.5990585255316)"
1/9/2018,Completed,1/10/2018,18-00142783,Street Lights - All/Out,12900 S HALSTED ST,60628,1173354.803,1819269.386,34,5,53,41.65948925,-87.64129528,"(41.659489254914874, -87.64129527945823)"
1/9/2018,Completed,1/10/2018,18-00142787,Street Lights - All/Out,3543 N HARLEM AVE,60634,1127447.114,1922709.142,38,16,17,41.94423606,-87.80697078,"(41.94423606350778, -87.8069707818614)"
1/9/2018,Completed,1/10/2018,18-00142816,Street Lights - All/Out,2035 N HARLEM AVE,60707,1127765.601,1912722.202,29,25,25,41.91682528,-87.8060259,"(41.91682527999942, -87.80602589501193)"
1/9/2018,Completed,1/10/2018,18-00142821,Street Lights - All/Out,5700 W NORTH AVE,60639,1138055.8,1910061.177,29,25,25,41.90934328,-87.7682836,"(41.909343277496305, -87.76828359908716)"
1/9/2018,Completed,1/10/2018,18-00142969,Street Lights - All/Out,1620 W NORTH AVE,60622,1165211.98,1910720.685,32,14,24,41.91061878,-87.6685048,"(41.910618775897994, -87.66850480018483)"
1/10/2018,Completed,1/10/2018,18-00165163,Street Lights - All/Out,3500 W WASHINGTON BLVD,60624,1152999.02,1899946.26,28,11,27,41.88130371,-87.71365673,"(41.881303705904664, -87.71365673028754)"
1/2/2018,Completed,1/10/2018,18-00017731,Street Lights - All/Out,5601 W CATALPA AVE,60630,1137847.403,1936216.351,45,16,11,41.98111948,-87.76841592,"(41.981119482339366, -87.76841591714214)"
1/4/2018,Completed,1/10/2018,18-00063511,Street Lights - All/Out,1134 N CENTRAL AVE,60651,1138799.737,1907120.49,29,15,25,41.9012602,-87.76562216,"(41.901260200950155, -87.76562215792107)"
1/4/2018,Completed,1/10/2018,18-00063823,Street Lights - All/Out,139 W 112TH PL,60628,1177289.405,1830355.382,34,5,49,41.68982336,-87.62656472,"(41.6898233590484, -87.62656472052846)"
1/5/2018,Completed,1/10/2018,18-00069009,Street Lights - All/Out,5150 S TALMAN AVE,60632,1159567.898,1870749.014,14,9,63,41.80105053,-87.6903387,"(41.80105053032413, -87.6903386984637)"
1/5/2018,Completed,1/10/2018,18-00071155,Street Lights - All/Out,7424 S EMERALD AVE,60621,1172584.854,1855679.151,6,7,68,41.75941998,-87.64304469,"(41.75941998138961, -87.64304468520375)"
1/5/2018,Completed,1/10/2018,18-00080031,Street Lights - All/Out,1043 S AUSTIN BLVD,60644,1136533.338,1895106.01,29,15,25,41.86833173,-87.7742345,"(41.86833172954765, -87.77423450349696)"
1/8/2018,Completed,1/10/2018,18-00120391,Street Lights - All/Out,2251 E 130TH ST,60633,1193096.893,1819325.264,10,4,55,41.65918492,-87.56905224,"(41.65918492033969, -87.56905224217275)"
1/8/2018,Completed,1/10/2018,18-00122311,Street Lights - All/Out,4901 S LAMON AVE,60638,1144520.06,1871688.83,22,8,56,41.80392518,-87.74550154,"(41.80392517612871, -87.74550153619472)"
1/8/2018,Completed,1/10/2018,18-00129438,Street Lights - All/Out,4351 S KEATING AVE,60632,1145416.272,1875366.492,22,8,56,41.81400038,-87.74212183,"(41.81400037686212, -87.74212182861262)"
1/8/2018,Completed,1/10/2018,18-00131903,Street Lights - All/Out,7300 S KEDZIE AVE,60629,1156302.297,1856041.066,18,8,66,41.76075617,-87.70271046,"(41.760756174172016, -87.7027104629077)"
1/8/2018,Completed,1/10/2018,18-00133259,Street Lights - All/Out,175 N HARBOR DR,60601,1179641.323,1901752.956,42,1,32,41.88569182,-87.61577285,"(41.88569181559134, -87.61577285492346)"
12/29/2017,Completed - Dup,1/11/2018,17-08656245,Street Lights - All/Out,859 N SPAULDING AVE,60651,1154256.568,1905574.98,27,11,23,41.89672446,-87.70888864,"(41.896724456069286, -87.70888864360947)"
12/29/2017,Completed,1/11/2018,17-08655123,Street Lights - All/Out,3300 W CHICAGO AVE,60651,1154229.56,1905139.42,27,11,23,41.89552978,-87.70899948,"(41.89552977857303, -87.70899948172313)"
1/11/2018,Completed,1/11/2018,18-00185406,Street Lights - All/Out,1700 W 87TH ST,60620,1166526.146,1847008.607,21,6,71,41.73575804,-87.66549634,"(41.73575803941187, -87.66549634265581)"
1/11/2018,Completed,1/11/2018,18-00185443,Street Lights - All/Out,51 W PERSHING RD,60609,1176526.145,1879134.035,3,2,38,41.82369484,-87.62789467,"(41.8236948375965, -87.62789467398677)"
1/11/2018,Completed,1/11/2018,18-00194303,Street Lights - All/Out,3716 W 51ST ST,60632,1152570.371,1870553.276,14,8,62,41.80065417,-87.71600647,"(41.80065417357887, -87.71600646784657)"
1/11/2018,Completed,1/11/2018,18-00195546,Street Lights - All/Out,2714 W GRAND AVE,60612,1158177.32,1904418.473,26,12,24,41.89347169,-87.69451996,"(41.89347169189896, -87.69451995924197)"
1/11/2018,Completed,1/11/2018,18-00196352,Street Lights - All/Out,4900 S KEATING AVE,60632,1145518.95,1871719.083,14,8,56,41.80398939,-87.74183727,"(41.80398938860339, -87.74183727043828)"
10/2/2017,Completed,1/11/2018,17-06584555,Street Lights - All/Out,6100 S MASSASOIT AVE,60638,1139112.416,1863535.631,13,8,64,41.78165117,-87.765532,"(41.78165116635439, -87.7655320021805)"
1/10/2018,Completed,1/11/2018,18-00165495,Street Lights - All/Out,4800 N ELSTON AVE,60630,1145561.617,1931526.742,39,17,14,41.96810774,-87.74016459,"(41.96810773762195, -87.74016458807667)"
1/10/2018,Completed,1/11/2018,18-00165498,Street Lights - All/Out,1500 W 69TH ST,60636,1167525.685,1858979.483,16,7,67,41.76858644,-87.66149193,"(41.768586435858026, -87.66149193466585)"
1/10/2018,Completed,1/11/2018,18-00165529,Street Lights - All/Out,1002 N HOMAN AVE,60651,1153523.429,1906468.919,27,11,23,41.89919212,-87.71155756,"(41.89919212185625, -87.71155756100237)"
1/10/2018,Completed,1/11/2018,18-00165532,Street Lights - All/Out,1650 W FULTON ST,60612,1165681.822,1902094.533,27,12,28,41.886938,-87.6670249,"(41.88693799689736, -87.66702489502656)"
1/10/2018,Completed,1/11/2018,18-00165538,Street Lights - All/Out,5301 N SHERIDAN RD,60640,1168683.265,1935482.95,48,20,77,41.97849294,-87.65503279,"(41.97849294206525, -87.65503279169828)"
1/10/2018,Completed,1/11/2018,18-00168645,Street Lights - All/Out,126 E KENSINGTON AVE,60628,1179106.498,1828226.53,9,5,53,41.68394037,-87.61997689,"(41.68394037403877, -87.61997688980262)"
1/10/2018,Completed,1/11/2018,18-00170387,Street Lights - All/Out,1000 N PULASKI RD,60651,1149539.386,1906377.764,37,11,23,41.89902028,-87.72619333,"(41.89902028389674, -87.72619332743419)"
1/10/2018,Completed,1/11/2018,18-00170430,Street Lights - All/Out,4000 W DIVISION ST,60651,1149500.132,1907708.038,37,25,23,41.90267145,-87.72630293,"(41.90267145344235, -87.72630293354702)"
1/10/2018,Completed,1/11/2018,18-00171980,Street Lights - All/Out,3030 W 21ST PL,60623,1156482.05,1889561.02,24,10,30,41.8527358,-87.70114799,"(41.85273579603382, -87.70114799440084)"
1/10/2018,Completed,1/11/2018,18-00172108,Street Lights - All/Out,6200 S STATE ST,60621,1177339.497,1863903.761,20,3,69,41.78188319,-87.62537102,"(41.78188318611775, -87.6253710175851)"
1/10/2018,Completed,1/11/2018,18-00172324,Street Lights - All/Out,7600 S SOUTH CHICAGO AVE,60619,1186229.937,1854867.645,5,4,45,41.75688179,-87.59306193,"(41.75688178950321, -87.59306193470238)"
1/10/2018,Completed,1/11/2018,18-00172436,Street Lights - All/Out,6446 S ST LAWRENCE AVE,60637,1181342.618,1862399.459,20,3,42,41.77766386,-87.61074104,"(41.77766385963504, -87.61074103864549)"
1/10/2018,Completed,1/11/2018,18-00174528,Street Lights - All/Out,6300 S KNOX AVE,60629,1146461.733,1862426.434,13,8,64,41.77847101,-87.73861531,"(41.77847101488801, -87.73861530683645)"
1/10/2018,Completed,1/11/2018,18-00176656,Street Lights - All/Out,5137 W WASHINGTON BLVD,60644,1142024.495,1900030.658,28,15,25,41.88174568,-87.753953,"(41.88174568173616, -87.75395300013655)"
1/10/2018,Completed,1/11/2018,18-00176874,Street Lights - All/Out,3800 W 81ST ST,60652,1152466.66,1850606.126,18,8,70,41.74591809,-87.71691114,"(41.74591809048925, -87.71691114096538)"
1/10/2018,Completed,1/11/2018,18-00177374,Street Lights - All/Out,8214 S RIDGELAND AVE,60617,1189357.28,1850862.555,8,4,45,41.74581704,-87.58172916,"(41.74581704167817, -87.58172915720307)"
1/11/2018,Completed - Dup,1/11/2018,18-00189106,Street Lights - All/Out,1245 E 88TH ST,60619,1186228.62,1846889.8,8,4,48,41.73498981,-87.5933182,"(41.734989811735275, -87.59331820446278)"
1/4/2018,Completed,1/11/2018,18-00064725,Street Lights - All/Out,1900 S TROY ST,60623,1155658.173,1890537.553,24,10,29,41.85543212,-87.70414563,"(41.85543211720471, -87.7041456317987)"
1/5/2018,Completed,1/11/2018,18-00074439,Street Lights - All/Out,9609 S AVENUE M,60617,1201453.442,1841984.733,10,4,52,41.72115719,-87.53770816,"(41.7211571881894, -87.53770815804731)"
1/5/2018,Completed,1/11/2018,18-00084627,Street Lights - All/Out,3100 N ASHLAND AVE,60657,1165110.179,1920648.696,32,19,6,41.937864,-87.66859604,"(41.93786399626135, -87.66859604441154)"
1/6/2018,Completed,1/11/2018,18-00097822,Street Lights - All/Out,4044 N WESTERN AVE,60618,1159647.896,1926895.57,47,19,5,41.95512026,-87.68849827,"(41.95512026166899, -87.68849826698911)"
1/8/2018,Completed - Dup,1/11/2018,18-00127084,Street Lights - All/Out,11000 S AVENUE H,60617,1202861.701,1832632.863,10,4,52,41.69545908,-87.53286855,"(41.69545908181443, -87.53286854543605)"
1/8/2018,Completed - Dup,1/11/2018,18-00127146,Street Lights - All/Out,11100 S AVENUE H,60617,1202867.424,1831974.012,10,4,52,41.69365099,-87.53287001,"(41.69365099154512, -87.53287000973498)"
1/8/2018,Completed,1/11/2018,18-00120435,Street Lights - All/Out,1550 W CONGRESS PKWY,60607,1165964.27,1897814.089,28,12,28,41.8751861,-87.66610988,"(41.875186099003805, -87.66610988183852)"
1/8/2018,Completed,1/11/2018,18-00121527,Street Lights - All/Out,2403 W 21ST ST,60608,1160672.436,1890007.731,28,10,31,41.85387593,-87.68575557,"(41.85387592968775, -87.68575556804062)"
1/8/2018,Completed,1/11/2018,18-00131406,Street Lights - All/Out,4200 N LINCOLN AVE,60618,1161601.029,1927875.96,47,19,5,41.95776995,-87.68129077,"(41.95776994966967, -87.68129076698574)"
1/8/2018,Completed,1/11/2018,18-00133997,Street Lights - All/Out,1818 N TRIPP AVE,60639,1147768.775,1911763.647,35,25,20,41.9138339,-87.73255823,"(41.913833898199314, -87.73255823185016)"
1/8/2018,Completed,1/11/2018,18-00134110,Street Lights - All/Out,3422 N NORMANDY AVE,60634,1131138.826,1922015.694,38,16,17,41.94227015,-87.79341745,"(41.94227015486861, -87.79341745025563)"
1/9/2018,Completed,1/11/2018,18-00142786,Street Lights - All/Out,3200 N OSCEOLA AVE,60634,1125860.797,1920417.401,29,16,17,41.93797383,-87.81285266,"(41.93797382639673, -87.81285265992747)"
1/9/2018,Completed,1/11/2018,18-00158569,Street Lights - All/Out,2600 W 23RD ST,60608,1159392.237,1888638.602,24,10,30,41.85014529,-87.69049201,"(41.85014529296038, -87.69049201304716)"
1/9/2018,Completed,1/11/2018,18-00162287,Street Lights - All/Out,8015 S HERMITAGE AVE,60620,1166073.474,1851543.703,21,6,71,41.74821263,-87.66702612,"(41.748212632020916, -87.66702612221104)"
1/9/2018,Completed,1/11/2018,18-00162719,Street Lights - All/Out,4000 W CONGRESS PKWY,60624,1149807.143,1897392.517,28,11,26,41.8743586,-87.72544365,"(41.87435859540129, -87.72544364601164)"
1/11/2018,Completed,1/12/2018,18-00185303,Street Lights - All/Out,9030 S BRANDON AVE,60617,1198893.766,1845664.807,10,4,46,41.73132014,-87.54696037,"(41.731320141234775, -87.54696036523974)"
1/11/2018,Completed,1/12/2018,18-00185772,Street Lights - All/Out,5518 S HYDE PARK BLVD,60637,1188597.234,1868742.446,5,2,41,41.79489914,-87.58394323,"(41.794899137782366, -87.58394322917597)"
1/11/2018,Completed,1/12/2018,18-00186218,Street Lights - All/Out,8300 W IRVING PARK RD,60634,1120008.684,1925530.902,38,16,17,41.95210142,-87.83425147,"(41.952101424845075, -87.83425146775707)"
1/11/2018,Completed,1/12/2018,18-00186284,Street Lights - All/Out,8567 W FOREST PRESERVE AVE,60634,1118710.839,1920890.546,38,16,76,41.93938832,-87.83912084,"(41.93938831535086, -87.83912084299287)"
1/11/2018,Completed,1/12/2018,18-00186292,Street Lights - All/Out,6926 W HAYES AVE,60631,1129088.75,1943033.452,41,16,10,41.99998024,-87.80047207,"(41.999980241292675, -87.80047207013078)"
1/11/2018,Completed,1/12/2018,18-00186756,Street Lights - All/Out,1200 N PAULINA ST,60622,1164709.8,1908049.02,1,14,24,41.90329821,-87.67042547,"(41.90329821006557, -87.67042546824322)"
1/11/2018,Completed,1/12/2018,18-00187141,Street Lights - All/Out,200 W NORTH AVE,60610,1174408.911,1910991.532,2,18,7,41.91116141,-87.63471085,"(41.911161406917785, -87.63471084676605)"
1/11/2018,Completed,1/12/2018,18-00189718,Street Lights - All/Out,2607 W 22ND PL,60608,1159335.85,1888967.59,24,10,30,41.85104923,-87.69068993,"(41.85104922884924, -87.69068992563798)"
1/11/2018,Completed,1/12/2018,18-00191946,Street Lights - All/Out,300 W 24TH ST,60616,1174590.532,1888383.352,25,9,34,41.84911912,-87.63471972,"(41.849119117342084, -87.6347197186492)"
1/11/2018,Completed,1/12/2018,18-00194054,Street Lights - All/Out,3851 W 48TH ST,60632,1151419.491,1872523.078,14,8,57,41.8060822,-87.72017563,"(41.80608219856145, -87.7201756322503)"
1/11/2018,Completed,1/12/2018,18-00194136,Street Lights - All/Out,3738 W 49TH ST,60632,1152153.14,1871876.254,14,8,57,41.80429283,-87.71750184,"(41.80429282802016, -87.71750184361052)"
1/11/2018,Completed,1/12/2018,18-00194233,Street Lights - All/Out,421 E 108TH ST,60628,1181052.57,1833440.063,9,5,49,41.69820259,-87.61269333,"(41.698202594912885, -87.6126933299471)"
1/11/2018,Completed,1/12/2018,18-00195313,Street Lights - All/Out,7918 S GREENWOOD AVE,60619,1184926.132,1852726.269,8,6,44,41.75103633,-87.59790718,"(41.75103632960249, -87.59790717945964)"
1/11/2018,Completed,1/12/2018,18-00197230,Street Lights - All/Out,3805 W 77TH PL,60652,1152040.546,1852866.96,18,8,70,41.75213057,-87.71841332,"(41.75213056871081, -87.71841332459152)"
1/11/2018,Completed,1/12/2018,18-00197909,Street Lights - All/Out,4610 S ARCHER AVE,60632,1153800.422,1873856.057,14,8,58,41.80969314,-87.71140778,"(41.80969313566035, -87.71140777690016)"
1/11/2018,Completed,1/12/2018,18-00198246,Street Lights - All/Out,2200 W 50TH PL,60609,1162411.36,1871146.99,15,9,63,41.80208378,-87.67989959,"(41.80208378291234, -87.67989959163035)"
1/11/2018,Completed,1/12/2018,18-00206216,Street Lights - All/Out,348 E 90TH PL,60619,1180106.319,1845051.833,9,6,44,41.73008847,-87.61580368,"(41.73008847294327, -87.6158036824026)"
1/12/2018,Completed - Dup,1/12/2018,18-00209631,Street Lights - All/Out,2300 W 19TH ST,60608,1161337.758,1890690.968,25,12,31,41.85573701,-87.6832946,"(41.85573700762469, -87.68329459989364)"
1/12/2018,Completed - Dup,1/12/2018,18-00211114,Street Lights - All/Out,314 S CENTRAL PARK BLVD,60624,1152435.717,1898371.131,28,11,27,41.87699253,-87.71576678,"(41.87699252581215, -87.71576678331265)"
1/12/2018,Completed - Dup,1/12/2018,18-00219158,Street Lights - All/Out,8900 S BURLEY AVE,60617,1199216.251,1846571.452,10,4,46,41.73379995,-87.54574862,"(41.733799952043675, -87.54574861785804)"
1/12/2018,Completed - Dup,1/12/2018,18-00219174,Street Lights - All/Out,9000 S BURLEY AVE,60617,1199234.291,1845904.318,10,4,46,41.73196883,-87.5457049,"(41.73196883320586, -87.54570489639559)"
1/12/2018,Completed - Dup,1/12/2018,18-00219312,Street Lights - All/Out,8900 S BUFFALO AVE,60617,1199589.622,1846580.492,10,4,46,41.73381538,-87.5443805,"(41.733815375819866, -87.54438049606149)"
1/12/2018,Completed - Dup,1/12/2018,18-00219360,Street Lights - All/Out,9000 S BUFFALO AVE,60617,1199607.404,1845914.083,10,4,46,41.73198625,-87.54433773,"(41.73198625114844, -87.5443377347115)"
1/12/2018,Completed,1/12/2018,18-00209131,Street Lights - All/Out,1520 W 95TH ST,60643,1167663.781,1841723.555,21,22,73,41.72123077,-87.66147959,"(41.72123076587476, -87.66147959496747)"
1/12/2018,Completed,1/12/2018,18-00228561,Street Lights - All/Out,5900 S PAYNE DR,60637,1182112.385,1866066.861,20,2,40,41.78770976,-87.60780565,"(41.787709762226825, -87.60780565057065)"
1/12/2018,Completed,1/12/2018,18-00228604,Street Lights - All/Out,410 E GARFIELD BLVD,60615,1179896.749,1868633.186,4,2,40,41.79480302,-87.61585086,"(41.794803015897664, -87.6158508637154)"
1/8/2018,Completed,1/12/2018,18-00125326,Street Lights - All/Out,8200 W IRVING PARK RD,60634,1120677.289,1925557.543,38,16,17,41.95216382,-87.83179303,"(41.95216382144568, -87.83179303160718)"
1/8/2018,Completed,1/12/2018,18-00138113,Street Lights - All/Out,1341 N MOHAWK ST,60610,1172407.042,1909253.976,2,18,8,41.90643797,-87.64211641,"(41.90643797160834, -87.64211641053753)"
1/9/2018,Completed,1/12/2018,18-00161244,Street Lights - All/Out,6777 W TALCOTT AVE,60656,1130079.567,1936142.666,41,16,10,41.98105431,-87.79698577,"(41.98105430901212, -87.79698577383867)"
1/9/2018,Completed,1/12/2018,18-00161960,Street Lights - All/Out,7172 W WAVELAND AVE,60634,1127686.179,1923753.894,38,16,17,41.94709895,-87.80606844,"(41.94709895476211, -87.80606844163906)"
1/10/2018,Completed,1/12/2018,18-00168492,Street Lights - All/Out,4019 N CUMBERLAND AVE,60634,1119349.988,1925636.922,38,16,17,41.95240286,-87.83667065,"(41.95240285836953, -87.83667064524943)"
1/10/2018,Completed,1/12/2018,18-00168661,Street Lights - All/Out,11710 S PERRY AVE,60628,1177681.537,1827306.78,34,5,53,41.6814487,-87.62522087,"(41.681448702046815, -87.62522086538343)"
1/10/2018,Completed,1/12/2018,18-00171233,Street Lights - All/Out,1856 N RIDGEWAY AVE,60647,1151082.951,1912110.4,26,25,22,41.91472107,-87.72037337,"(41.914721070955984, -87.72037336537788)"
1/10/2018,Completed,1/12/2018,18-00174397,Street Lights - All/Out,6486 N NEWLAND AVE,60631,1129109.55,1942905.752,41,16,10,41.99962947,-87.80039847,"(41.99962946583942, -87.80039847418871)"
1/10/2018,Completed,1/12/2018,18-00176195,Street Lights - All/Out,6660 N IONIA AVE,60646,1139401.026,1943763.832,41,16,12,42.00180208,-87.76251709,"(42.001802083597724, -87.7625170874234)"
1/10/2018,Completed,1/12/2018,18-00179976,Street Lights - All/Out,100 W GARFIELD BLVD,60609,1176643.44,1868537.257,3,2,40,41.79461367,-87.62778352,"(41.79461366760812, -87.62778351728156)"
1/10/2018,Completed,1/12/2018,18-00180603,Street Lights - All/Out,5200 W RACE AVE,60644,1141604.425,1903056.26,37,15,25,41.89005608,-87.75542069,"(41.89005607853205, -87.75542068615911)"
1/12/2018,Completed,1/15/2018,18-00223503,Street Lights - All/Out,1416 S KOLIN AVE,60623,1147612.618,1892911.229,24,10,29,41.86210376,-87.73361598,"(41.86210376380637, -87.7336159832056)"
1/16/2018,Completed - Dup,1/16/2018,18-00287056,Street Lights - All/Out,311 S CENTRAL PARK BLVD,60624,1152435.217,1898388.231,28,11,27,41.87703946,-87.71576817,"(41.8770394599241, -87.71576816740638)"
1/16/2018,Completed,1/16/2018,18-00289159,Street Lights - All/Out,5200 S WELLS ST,60609,1175483.513,1870496.16,3,9,37,41.80001514,-87.63197831,"(41.8000151377338, -87.6319783132756)"
1/16/2018,Completed,1/16/2018,18-00289232,Street Lights - All/Out,1 W 71ST ST,60621,1177515.856,1857917.935,6,3,69,41.76545346,-87.62490522,"(41.76545345593789, -87.62490521862533)"
1/16/2018,Completed,1/16/2018,18-00289441,Street Lights - All/Out,4259 S MICHIGAN AVE,60653,1177866.222,1876803.184,3,2,38,41.81726849,-87.62304914,"(41.81726849017215, -87.62304913759941)"
1/13/2018,Completed,1/16/2018,18-00234012,Street Lights - All/Out,1410 E 48TH ST,60615,1186409.149,1873460.366,4,2,39,41.80789752,-87.59181756,"(41.80789751960851, -87.59181756088691)"
1/13/2018,Completed,1/16/2018,18-00241594,Street Lights - All/Out,4900 N NEVA AVE,60656,1127653.392,1932129.985,41,16,10,41.97008444,-87.8059995,"(41.97008443883159, -87.80599949556218)"
1/13/2018,Completed,1/16/2018,18-00241949,Street Lights - All/Out,2134 S DRAKE AVE,60623,1153074.033,1889585.001,24,10,29,41.85286977,-87.71365592,"(41.85286977135635, -87.71365592451458)"
1/13/2018,Completed,1/16/2018,18-00243000,Street Lights - All/Out,7935 S KILPATRICK AVE,60652,1146926.983,1851467.48,18,8,70,41.74838891,-87.73718809,"(41.748388908749625, -87.73718808703327)"
1/13/2018,Completed,1/16/2018,18-00245625,Street Lights - All/Out,5421 W 54TH ST,60638,1141053.45,1868268.201,23,8,56,41.79460276,-87.75829952,"(41.79460275818631, -87.75829952112225)"
1/13/2018,Completed,1/16/2018,18-00245698,Street Lights - All/Out,8750 S PRAIRIE AVE,60619,1179553.401,1847367.328,9,6,44,41.7364551,-87.61775865,"(41.73645510337589, -87.61775865260542)"
1/13/2018,Completed,1/16/2018,18-00245700,Street Lights - All/Out,5307 W 55TH ST,60638,1141889.11,1867633.111,23,8,56,41.79284459,-87.75525078,"(41.792844585541616, -87.75525077671833)"
1/14/2018,Completed,1/16/2018,18-00251381,Street Lights - All/Out,5231 S LOTUS AVE,60638,1140914.917,1869381.398,14,8,56,41.7976601,-87.75878025,"(41.79766010011374, -87.7587802464131)"
1/14/2018,Completed,1/16/2018,18-00260840,Street Lights - All/Out,7008 W SCHOOL ST,60634,1128918.777,1921135.586,38,16,17,41.93989311,-87.80159736,"(41.93989311456619, -87.80159736019874)"
1/15/2018,Completed,1/16/2018,18-00270542,Street Lights - All/Out,5422 S DORCHESTER AVE,60615,1186464.45,1869647.702,5,2,41,41.79743398,-87.59173539,"(41.79743398255037, -87.59173538607548)"
1/11/2018,Completed,1/16/2018,18-00185035,Street Lights - All/Out,4600 W 63RD ST,60629,1146787.735,1862434.395,13,8,64,41.77848667,-87.73741995,"(41.77848666694422, -87.73741994581495)"
1/11/2018,Completed,1/16/2018,18-00185093,Street Lights - All/Out,5000 S ELIZABETH ST,60609,1168836.81,1871623.283,20,9,61,41.80325432,-87.65632108,"(41.803254324283714, -87.6563210820959)"
1/11/2018,Completed,1/16/2018,18-00185612,Street Lights - All/Out,5500 S NARRAGANSETT AVE,60638,1134648.924,1867404.943,13,8,56,41.79234898,-87.78180561,"(41.79234898028951, -87.781805608548)"
1/11/2018,Completed,1/16/2018,18-00186350,Street Lights - All/Out,3617 N LOTUS AVE,60641,1139383.79,1923514.945,36,16,15,41.94623774,-87.76307638,"(41.9462377436783, -87.76307637723369)"
1/11/2018,Completed,1/16/2018,18-00186426,Street Lights - All/Out,3100 N KILBOURN AVE,60641,1145838.183,1920229.952,31,25,20,41.93710314,-87.73943551,"(41.9371031440405, -87.73943551102103)"
1/11/2018,Completed,1/16/2018,18-00186956,Street Lights - All/Out,3106 W HURON ST,60612,1155519.864,1904499.26,27,12,23,41.89374726,-87.70427772,"(41.89374725716279, -87.70427771502975)"
1/11/2018,Completed,1/16/2018,18-00186982,Street Lights - All/Out,1500 W WARREN BLVD,60607,1166210.736,1900437.137,27,12,28,41.88237869,-87.66512998,"(41.882378689768885, -87.66512998023133)"
1/11/2018,Completed,1/16/2018,18-00187162,Street Lights - All/Out,700 N LA SALLE DR,60654,1175011.439,1905038.207,42,18,8,41.8948117,-87.63267602,"(41.894811704301496, -87.63267601670503)"
1/11/2018,Completed,1/16/2018,18-00192207,Street Lights - All/Out,2500 N WESTERN AVE,60647,1159940.54,1916546.56,1,14,22,41.92671589,-87.68770899,"(41.92671588944749, -87.68770899183941)"
1/11/2018,Completed,1/16/2018,18-00194064,Street Lights - All/Out,2757 W 84TH ST,60652,1159471.787,1848833.64,18,8,70,41.74091353,-87.69129115,"(41.74091353063685, -87.69129115354876)"
1/11/2018,Completed,1/16/2018,18-00196391,Street Lights - All/Out,2900 N ALLEN AVE,60618,1152413.014,1919103.985,35,14,21,41.93388587,-87.71530168,"(41.933885871602904, -87.7153016784655)"
1/11/2018,Completed,1/16/2018,18-00198053,Street Lights - All/Out,4850 S CALIFORNIA AVE,60632,1158525.701,1872274.35,14,9,58,41.80525758,-87.69411922,"(41.80525758279051, -87.69411922025408)"
1/11/2018,Completed,1/16/2018,18-00199666,Street Lights - All/Out,5516 N CHRISTIANA AVE,60625,1153056.776,1936461.534,39,17,13,41.9815034,-87.71247371,"(41.98150339635072, -87.71247370920389)"
1/11/2018,Completed,1/16/2018,18-00204329,Street Lights - All/Out,5700 S CALUMET AVE,60637,1179456.287,1867297.271,20,2,40,41.79114722,-87.61750681,"(41.79114721651257, -87.617506808976)"
1/11/2018,Completed,1/16/2018,18-00204369,Street Lights - All/Out,12700 S LOWE AVE,60628,1174295.064,1820662.315,9,5,53,41.66329092,-87.63781346,"(41.66329091907985, -87.63781345972885)"
1/11/2018,Completed,1/16/2018,18-00204974,Street Lights - All/Out,9429 S VERNON AVE,60619,1180901.691,1842549.359,9,6,49,41.72320315,-87.61296673,"(41.72320314647582, -87.61296673305264)"
1/11/2018,Completed,1/16/2018,18-00204986,Street Lights - All/Out,9100 S JEFFERY AVE,60617,1191099.187,1845026.762,8,4,48,41.72976115,-87.57553486,"(41.72976115076092, -87.57553485859155)"
1/12/2018,Completed - Dup,1/16/2018,18-00210510,Street Lights - All/Out,4700 W 63RD ST,60629,1146125.913,1862419.361,13,8,64,41.77845797,-87.73984664,"(41.77845797077268, -87.73984664087972)"
1/12/2018,Completed - Dup,1/16/2018,18-00226449,Street Lights - All/Out,800 S MICHIGAN AVE,60605,1177396.221,1896700.326,4,1,32,41.87187834,-87.62417053,"(41.87187833610459, -87.62417052644881)"
1/12/2018,Completed,1/16/2018,18-00209457,Street Lights - All/Out,4630 S GREENWOOD AVE,60653,1184361.994,1874531.105,4,2,39,41.81088393,-87.59929234,"(41.81088392957522, -87.59929234399794)"
1/12/2018,Completed,1/16/2018,18-00209624,Street Lights - All/Out,2702 N CALIFORNIA AVE,60647,1157247.331,1917837.26,32,14,22,41.93031288,-87.69757019,"(41.93031288429492, -87.69757018700457)"
1/12/2018,Completed,1/16/2018,18-00210993,Street Lights - All/Out,5402 W BELMONT AVE,60641,1139782.023,1920747.595,30,16,15,41.93863658,-87.76168042,"(41.93863658090888, -87.76168041650764)"
1/12/2018,Completed,1/16/2018,18-00212034,Street Lights - All/Out,4746 S ROCKWELL ST,60632,1159833.226,1873113.666,15,9,58,41.80753399,-87.68930066,"(41.807533986716194, -87.68930066260837)"
1/12/2018,Completed,1/16/2018,18-00212138,Street Lights - All/Out,2856 S POPLAR AVE,60608,1170313.841,1885830.346,11,9,60,41.84220785,-87.65049002,"(41.84220784612322, -87.65049002146867)"
1/12/2018,Completed,1/16/2018,18-00216639,Street Lights - All/Out,4320 S KEELER AVE,60632,1149065.2,1875668.841,14,8,57,41.8147604,-87.72872925,"(41.81476039960195, -87.72872925394515)"
1/12/2018,Completed,1/16/2018,18-00216879,Street Lights - All/Out,5745 W 64TH PL,60638,1139226.189,1861207.786,13,8,64,41.77526108,-87.76517127,"(41.77526107985075, -87.7651712654035)"
1/12/2018,Completed,1/16/2018,18-00221152,Street Lights - All/Out,5506 S ST LOUIS AVE,60629,1153982.5,1867881.555,14,8,63,41.79329464,-87.71089862,"(41.7932946396767, -87.71089862455148)"
1/12/2018,Completed,1/16/2018,18-00221254,Street Lights - All/Out,3600 W DOUGLAS BLVD,60623,1152594.81,1893220.21,24,10,29,41.86285469,-87.7153188,"(41.86285468531173, -87.71531880114927)"
1/12/2018,Completed,1/16/2018,18-00225237,Street Lights - All/Out,1319 S KOSTNER AVE,60623,1147258.677,1893547.04,24,10,29,41.86385529,-87.73489899,"(41.86385528632243, -87.73489899056761)"
1/9/2018,Completed,1/16/2018,18-00142493,Street Lights - All/Out,8336 S PAULINA ST,60620,1166461.183,1849420.355,21,6,71,41.74237761,-87.6656658,"(41.74237761365337, -87.66566579590308)"
1/9/2018,Completed,1/16/2018,18-00147788,Street Lights - All/Out,200 W HURON ST,60654,1174609.484,1905027.963,42,18,8,41.89479259,-87.63415258,"(41.894792592327, -87.63415257616879)"
1/9/2018,Completed,1/16/2018,18-00150946,Street Lights - All/Out,4759 S FAIRFIELD AVE,60632,1158837.187,1873002.415,14,9,58,41.80724912,-87.69295692,"(41.807249123611, -87.69295691671743)"
1/9/2018,Completed,1/16/2018,18-00159201,Street Lights - All/Out,400 N LECLAIRE AVE,60644,1142297.56,1902254.275,37,15,25,41.8878425,-87.75289507,"(41.88784249623415, -87.75289507214019)"
1/9/2018,Completed,1/16/2018,18-00161204,Street Lights - All/Out,3214 N ODELL AVE,60634,1126527.712,1920517.43,29,16,17,41.93823718,-87.81039932,"(41.93823718261943, -87.81039931684688)"
1/10/2018,Completed,1/16/2018,18-00164809,Street Lights - All/Out,6000 S ARCHER AVE,60638,1138839.08,1868432.61,14,8,56,41.79509428,-87.76641576,"(41.795094283546476, -87.76641575632478)"
1/10/2018,Completed,1/16/2018,18-00164810,Street Lights - All/Out,5806 W 61ST ST,60638,1138715.157,1863523.061,13,8,64,41.78162386,-87.76698878,"(41.78162386182409, -87.7669887835064)"
1/10/2018,Completed,1/16/2018,18-00165001,Street Lights - All/Out,2998 W 115TH ST,60655,1158441.604,1828207.651,19,22,75,41.68433322,-87.6956254,"(41.684333223810135, -87.69562539907866)"
1/10/2018,Completed,1/16/2018,18-00165211,Street Lights - All/Out,9909 S LONGWOOD DR,60643,1165651.236,1838963.384,19,22,72,41.71369928,-87.66892918,"(41.7136992831937, -87.66892918419421)"
1/10/2018,Completed,1/16/2018,18-00165843,Street Lights - All/Out,3100 W ROOSEVELT RD,60612,1155886.566,1894547.163,24,11,29,41.86643033,-87.7031993,"(41.86643032743463, -87.70319930108656)"
1/10/2018,Completed,1/16/2018,18-00169774,Street Lights - All/Out,2515 W 35TH ST,60632,1160137.993,1881385.469,12,9,58,41.83022654,-87.68795499,"(41.830226541876876, -87.68795498504467)"
1/10/2018,Completed,1/16/2018,18-00170169,Street Lights - All/Out,4770 S KEDZIE AVE,60632,1155847.376,1872719.99,14,8,58,41.80653472,-87.70393032,"(41.80653471975375, -87.70393032477273)"
1/10/2018,Completed,1/16/2018,18-00173423,Street Lights - All/Out,2003 W CARROLL AVE,60612,1162993.208,1902342.223,27,12,28,41.88767454,-87.67689124,"(41.887674542293546, -87.67689124282882)"
1/10/2018,Completed,1/16/2018,18-00176890,Street Lights - All/Out,2700 W HIRSCH ST,60622,1158151.962,1909202.878,1,14,24,41.90660102,-87.69448224,"(41.906601024011245, -87.69448223980152)"
1/10/2018,Completed,1/16/2018,18-00177034,Street Lights - All/Out,5803 W 64TH ST,60638,1138831.938,1861527.203,13,8,64,41.77614476,-87.76660885,"(41.77614475586523, -87.766608853165)"
1/10/2018,Completed,1/16/2018,18-00182429,Street Lights - All/Out,9156 S DR MARTIN LUTHER KING JR DR,60619,1180524.918,1844196.749,9,6,44,41.72773243,-87.6142964,"(41.72773243297717, -87.61429640448348)"
12/14/2017,Completed,1/17/2018,17-08373109,Street Lights - All/Out,5918 S CARPENTER ST,60621,1170325.307,1865568.52,16,7,68,41.78660708,-87.65103831,"(41.78660707627786, -87.65103830876497)"
1/17/2018,Completed - Dup,1/17/2018,18-00309587,Street Lights - All/Out,900 E 63RD ST,60637,1183532.16,1863433.349,20,3,42,41.78045018,-87.60268204,"(41.78045017878007, -87.60268203532293)"
1/17/2018,Completed - Dup,1/17/2018,18-00309775,Street Lights - All/Out,5300 S DORCHESTER AVE,60615,1186444.132,1870404.781,5,2,41,41.79951194,-87.59178594,"(41.79951194430392, -87.591785943938)"
1/17/2018,Completed - Dup,1/17/2018,18-00310527,Street Lights - All/Out,4400 N MCVICKER AVE,60630,1135224.988,1928624.723,38,16,15,41.9603344,-87.77824138,"(41.96033440046085, -87.77824138096676)"
1/17/2018,Completed - Dup,1/17/2018,18-00311326,Street Lights - All/Out,300 S CENTRAL PARK BLVD,60624,1152433.217,1898450.931,28,11,27,41.87721155,-87.71577385,"(41.87721155495535, -87.71577385438707)"
1/17/2018,Completed,1/17/2018,18-00310092,Street Lights - All/Out,4400 S SHIELDS AVE,60609,1174709.236,1875753.22,3,9,37,41.81445832,-87.63466107,"(41.81445831766069, -87.63466106888559)"
1/17/2018,Completed,1/17/2018,18-00310127,Street Lights - All/Out,4400 S PRINCETON AVE,60609,1175021.149,1875761.651,3,9,37,41.81447449,-87.63351669,"(41.814474488228484, -87.63351669144987)"
1/17/2018,Completed,1/17/2018,18-00314001,Street Lights - All/Out,557 E 92ND ST,60619,1181570.184,1844097.186,9,6,44,41.72743519,-87.61047052,"(41.72743519481364, -87.61047051565642)"
1/17/2018,Completed,1/17/2018,18-00316565,Street Lights - All/Out,4846 S ARCHER AVE,60632,1151891.61,1872266.504,14,8,57,41.80536887,-87.71845078,"(41.80536886712084, -87.71845078387864)"
1/17/2018,Completed,1/17/2018,18-00320134,Street Lights - All/Out,10135 S CALHOUN AVE,60617,1194817.183,1838261.125,7,4,51,41.71110498,-87.56213706,"(41.71110498372202, -87.56213705987764)"
1/15/2018,Completed,1/17/2018,18-00268403,Street Lights - All/Out,6644 W 52ND ST,60638,1132868.001,1869366.698,14,8,56,41.79776356,-87.78829053,"(41.79776356071674, -87.78829053327692)"
1/15/2018,Completed,1/17/2018,18-00272651,Street Lights - All/Out,2900 W ARMITAGE AVE,60647,1156808.63,1913153.34,1,14,22,41.91746877,-87.69930958,"(41.917468766165335, -87.69930957766125)"
1/15/2018,Completed,1/17/2018,18-00277981,Street Lights - All/Out,6343 N KEYSTONE AVE,60646,1148221.434,1941769.573,39,17,12,41.99616378,-87.73011929,"(41.99616377771682, -87.73011929499704)"
1/15/2018,Completed,1/17/2018,18-00281368,Street Lights - All/Out,1638 W CHASE AVE,60626,1164223.019,1948324.027,49,24,1,42.01382494,-87.67107019,"(42.0138249417637, -87.6710701866623)"
1/16/2018,Completed - Dup,1/17/2018,18-00292682,Street Lights - All/Out,3100 N MAJOR AVE,60634,1137832.066,1920035.88,30,25,19,41.93671902,-87.76886431,"(41.93671901904735, -87.7688643053994)"
1/16/2018,Completed - Dup,1/17/2018,18-00294815,Street Lights - All/Out,5600 W NORTH AVE,60639,1138752.391,1910078.696,29,25,25,41.90937873,-87.76572417,"(41.909378730691934, -87.76572416666986)"
1/16/2018,Completed - Dup,1/17/2018,18-00294816,Street Lights - All/Out,5700 W NORTH AVE,60639,1138055.8,1910061.177,29,25,25,41.90934328,-87.7682836,"(41.909343277496305, -87.76828359908716)"
1/16/2018,Completed,1/17/2018,18-00287136,Street Lights - All/Out,2338 W WAVELAND AVE,60618,1160018.154,1924511.98,47,19,5,41.9485719,-87.68720319,"(41.94857190233024, -87.6872031910322)"
1/16/2018,Completed,1/17/2018,18-00287141,Street Lights - All/Out,1608 W PERSHING RD,60609,1166203.364,1878853.38,12,9,59,41.82315103,-87.6657732,"(41.82315102844916, -87.66577319887031)"
1/16/2018,Completed,1/17/2018,18-00287579,Street Lights - All/Out,3553 N NOTTINGHAM AVE,60634,1128115.915,1922796.838,38,16,17,41.94446542,-87.80451052,"(41.94446541534109, -87.80451052253517)"
1/16/2018,Completed,1/17/2018,18-00287822,Street Lights - All/Out,101 N MICHIGAN AVE,60602,1177299.214,1900845.861,42,1,32,41.88325612,-87.62440096,"(41.883256118099986, -87.62440095896075)"
1/16/2018,Completed,1/17/2018,18-00288921,Street Lights - All/Out,7100 S PAXTON AVE,60649,1192117.129,1858286.44,5,3,43,41.7661222,-87.57137577,"(41.76612219683828, -87.57137577434209)"
1/16/2018,Completed,1/17/2018,18-00289504,Street Lights - All/Out,2651 W 85TH ST,60652,1160145.346,1848278.02,18,8,70,41.739375,-87.68883852,"(41.73937500453587, -87.68883851764515)"
1/16/2018,Completed,1/17/2018,18-00289732,Street Lights - All/Out,6021 S INDIANA AVE,60637,1178630.006,1865134.205,20,3,40,41.78523039,-87.62060233,"(41.78523039398471, -87.62060232736184)"
1/16/2018,Completed,1/17/2018,18-00290056,Street Lights - All/Out,2652 N LAMON AVE,60639,1143265.603,1917285.637,31,25,19,41.92907217,-87.748964,"(41.92907217408566, -87.74896399500291)"
1/16/2018,Completed,1/17/2018,18-00290112,Street Lights - All/Out,9400 S JEFFERY AVE,60617,1191153.251,1843036.37,8,4,48,41.72429801,-87.57540101,"(41.724298013927736, -87.57540101045366)"
1/16/2018,Completed,1/17/2018,18-00292985,Street Lights - All/Out,1300 S CALIFORNIA BLVD,60608,1157892.457,1893904.114,24,10,29,41.86462509,-87.69585299,"(41.86462509432269, -87.69585298585926)"
1/16/2018,Completed,1/17/2018,18-00293207,Street Lights - All/Out,3830 S MORGAN ST,60609,1170276.102,1879416.36,11,9,60,41.8246081,-87.65081552,"(41.82460809569054, -87.65081552309616)"
1/16/2018,Completed,1/17/2018,18-00294425,Street Lights - All/Out,3335 S PAULINA ST,60608,1165562.698,1882504.065,12,9,59,41.83318253,-87.66801983,"(41.83318252818629, -87.66801983493598)"
1/16/2018,Completed,1/17/2018,18-00295392,Street Lights - All/Out,7000 W ADDISON ST,60634,1129112.04,1923138.313,38,16,17,41.94538554,-87.80084132,"(41.945385541299714, -87.80084131720815)"
1/16/2018,Completed,1/17/2018,18-00296008,Street Lights - All/Out,3705 W 83RD PL,60652,1153145.177,1848957.915,18,8,70,41.74138175,-87.71446832,"(41.741381750899066, -87.71446831846754)"
1/12/2018,Completed - Dup,1/17/2018,18-00209598,Street Lights - All/Out,311 S CENTRAL PARK BLVD,60624,1152435.217,1898388.231,28,11,27,41.87703946,-87.71576817,"(41.8770394599241, -87.71576816740638)"
1/12/2018,Completed - Dup,1/17/2018,18-00217375,Street Lights - All/Out,2247 W 19TH ST,60608,1161687.636,1890701.788,25,12,31,41.85575942,-87.68201008,"(41.85575942298159, -87.68201007726569)"
1/12/2018,Completed - Dup,1/17/2018,18-00218998,Street Lights - All/Out,7838 S SOUTH CHICAGO AVE,60619,1188064.893,1853134.927,5,4,45,41.75208353,-87.58639236,"(41.75208352809609, -87.58639236433855)"
1/12/2018,Completed,1/17/2018,18-00207166,Street Lights - All/Out,3208 N PANAMA AVE,60634,1121530.39,1920342.6,38,16,17,41.93783961,-87.82876979,"(41.93783960762518, -87.82876978520939)"
1/12/2018,Completed,1/17/2018,18-00209289,Street Lights - All/Out,4422 W 72ND ST,60629,1148111.76,1856529.12,18,8,65,41.76225632,-87.7327171,"(41.762256324694214, -87.73271710105965)"
1/12/2018,Completed,1/17/2018,18-00209678,Street Lights - All/Out,1709 W DIVISION ST,60622,1164654.8,1908047.32,1,12,24,41.90329471,-87.67062754,"(41.90329471124928, -87.67062754251742)"
1/12/2018,Completed,1/17/2018,18-00209688,Street Lights - All/Out,1252 S RACINE AVE,60608,1168567.181,1894439.93,25,12,28,41.86587122,-87.65665074,"(41.86587121906856, -87.65665074111875)"
1/12/2018,Completed,1/17/2018,18-00211050,Street Lights - All/Out,700 S PULASKI RD,60624,1149823.636,1896726.66,24,11,26,41.87253109,-87.72540041,"(41.87253108557288, -87.7254004083131)"
1/12/2018,Completed,1/17/2018,18-00211057,Street Lights - All/Out,1831 N HARDING AVE,60647,1149756.32,1911941.918,26,25,20,41.91428466,-87.72525165,"(41.91428465614843, -87.72525165443875)"
1/12/2018,Completed,1/17/2018,18-00212390,Street Lights - All/Out,6130 S INDIANA AVE,60637,1178652.964,1864288.051,20,3,40,41.78290794,-87.62054387,"(41.78290793995665, -87.62054387244696)"
1/12/2018,Completed,1/17/2018,18-00213271,Street Lights - All/Out,1648 N NARRAGANSETT AVE,60639,1133495.71,1910280.326,29,25,25,41.91002586,-87.7850305,"(41.910025859501644, -87.78503049989384)"
1/12/2018,Completed,1/17/2018,18-00221217,Street Lights - All/Out,3314 W 47TH ST,60632,1155115.25,1873280.879,14,8,58,41.80808856,-87.70660054,"(41.808088556089814, -87.7066005359061)"
1/12/2018,Completed,1/17/2018,18-00221604,Street Lights - All/Out,1455 W OLIVE AVE,60660,1165572.482,1937649.493,48,20,77,41.98450503,-87.6664107,"(41.9845050267613, -87.66641069720491)"
1/12/2018,Completed,1/17/2018,18-00223485,Street Lights - All/Out,10500 S WOOD ST,60643,1166210.208,1835019.376,19,22,72,41.70286443,-87.66699379,"(41.702864431062785, -87.66699379014402)"
1/12/2018,Completed,1/17/2018,18-00224729,Street Lights - All/Out,527 W 60TH PL,60621,1173847.187,1864789.842,20,7,68,41.78439288,-87.63814838,"(41.78439287855374, -87.63814838333482)"
1/12/2018,Completed,1/17/2018,18-00225034,Street Lights - All/Out,717 N SPRINGFIELD AVE,60624,1150260.145,1904506.116,37,11,23,41.89387026,-87.72359484,"(41.893870262738105, -87.72359484033441)"
1/12/2018,Completed,1/17/2018,18-00225217,Street Lights - All/Out,2626 W WELLINGTON AVE,60618,1158220.86,1919833.341,33,14,21,41.9357704,-87.69393799,"(41.93577040376325, -87.69393798998338)"
1/12/2018,Completed,1/17/2018,18-00226206,Street Lights - All/Out,7936 S EMERALD AVE,60620,1172678.67,1852246.452,17,6,71,41.74999816,-87.64280183,"(41.74999815547403, -87.6428018312429)"
1/12/2018,Completed,1/17/2018,18-00229285,Street Lights - All/Out,5710 W BARRY AVE,60634,1137718.266,1920033.08,30,25,19,41.93671339,-87.76928261,"(41.93671339092834, -87.76928260922801)"
1/13/2018,Completed,1/17/2018,18-00232877,Street Lights - All/Out,10300 S LAWNDALE AVE,60655,1153483.446,1836072.696,19,22,74,41.70601571,-87.7135688,"(41.7060157109266, -87.71356879537213)"
1/13/2018,Completed,1/17/2018,18-00236453,Street Lights - All/Out,70 E 13TH ST,60605,1177188.3,1894473.47,3,1,33,41.86577242,-87.62500134,"(41.865772418178224, -87.62500134167404)"
1/13/2018,Completed,1/17/2018,18-00241015,Street Lights - All/Out,1526 N KILDARE AVE,60651,1147442.761,1909520.724,26,25,23,41.90768535,-87.73381355,"(41.90768535253554, -87.73381355059543)"
1/13/2018,Completed,1/17/2018,18-00243686,Street Lights - All/Out,3550 W COLUMBUS AVE,60652,1154120.889,1849930.314,18,8,70,41.74403087,-87.71086755,"(41.74403086959039, -87.71086754969853)"
1/13/2018,Completed,1/17/2018,18-00244071,Street Lights - All/Out,11118 S PEORIA ST,60643,1172301.402,1831106.768,34,22,75,41.69199613,-87.64480385,"(41.6919961332689, -87.64480385350245)"
1/13/2018,Completed,1/17/2018,18-00244655,Street Lights - All/Out,3000 N KENNETH AVE,60641,1146193.538,1919573.687,31,25,20,41.93529553,-87.73814626,"(41.935295530865815, -87.73814625839668)"
1/14/2018,Completed,1/17/2018,18-00247758,Street Lights - All/Out,1656 N FRANCISCO AVE,60647,1156876.934,1910946.333,1,14,24,41.91141117,-87.69911859,"(41.911411173897605, -87.69911858604397)"
1/14/2018,Completed,1/17/2018,18-00251108,Street Lights - All/Out,4025 W 51ST ST,60632,1150393.197,1870495.59,23,8,57,41.8005385,-87.72399247,"(41.800538503877675, -87.72399246603732)"
1/14/2018,Completed,1/17/2018,18-00258140,Street Lights - All/Out,3900 W GEORGE ST,60618,1149887.643,1918999.119,30,25,21,41.93364769,-87.72458513,"(41.933647689676256, -87.72458513164513)"
1/14/2018,Completed,1/17/2018,18-00261597,Street Lights - All/Out,1226 W HURON ST,60642,1167988.62,1904828.596,1,12,24,41.89439099,-87.65847478,"(41.89439099305993, -87.6584747774886)"
1/14/2018,Completed,1/17/2018,18-00261895,Street Lights - All/Out,200 W HILL ST,60610,1174517.058,1907691.72,27,18,8,41.90210415,-87.63441233,"(41.902104145986655, -87.63441232932406)"
1/2/2018,Completed,1/17/2018,18-00015678,Street Lights - All/Out,732 E 63RD ST,60637,1182308.156,1863401.577,20,3,42,41.78039145,-87.60717038,"(41.780391445173024, -87.60717038005036)"
1/4/2018,Completed,1/17/2018,18-00066098,Street Lights - All/Out,8716 S JEFFERY BLVD,60617,1191028.593,1847577.09,8,4,48,41.7367612,-87.57571122,"(41.736761201664976, -87.57571122430745)"
1/8/2018,Completed - Dup,1/17/2018,18-00120609,Street Lights - All/Out,1400 W CONGRESS PKWY,60607,1167132.236,1897850.296,28,12,28,41.87526046,-87.66182055,"(41.87526045999278, -87.661820553875)"
1/8/2018,Completed,1/17/2018,18-00120154,Street Lights - All/Out,400 S LOOMIS ST,60607,1167120.041,1898279.25,28,12,28,41.8764378,-87.66185301,"(41.8764378044856, -87.66185300957234)"
1/9/2018,Completed,1/17/2018,18-00143296,Street Lights - All/Out,9040 S DAUPHIN AVE,60619,1183691.767,1845117.74,8,6,44,41.73018656,-87.60266718,"(41.73018655900034, -87.60266717816535)"
1/9/2018,Completed,1/17/2018,18-00143459,Street Lights - All/Out,140 W ILLINOIS ST,60654,1175055.284,1903577.528,42,18,8,41.89080254,-87.6325588,"(41.89080253836194, -87.63255880100992)"
1/9/2018,Completed,1/17/2018,18-00150747,Street Lights - All/Out,8355 S KEELER AVE,60652,1149863.71,1848823.727,18,8,70,41.74107765,-87.72649507,"(41.74107764580365, -87.72649506740842)"
1/9/2018,Completed,1/17/2018,18-00152123,Street Lights - All/Out,700 S CENTRAL PARK AVE,60624,1152486.236,1896791.823,24,11,27,41.87265774,-87.71562302,"(41.87265773755135, -87.71562302312373)"
1/9/2018,Completed,1/17/2018,18-00156306,Street Lights - All/Out,800 E MIDWAY PLAISANCE,60637,1182590.38,1865859.543,5,2,41,41.78712978,-87.60605949,"(41.787129782537455, -87.60605948788465)"
1/9/2018,Completed,1/17/2018,18-00162776,Street Lights - All/Out,6200 W MELROSE ST,60634,1134494.176,1920955.794,36,16,17,41.93930302,-87.78110991,"(41.93930301790224, -87.78110991081398)"
1/10/2018,Completed - Dup,1/17/2018,18-00178352,Street Lights - All/Out,1726 W WELLINGTON AVE,60657,1164174.252,1919963.571,32,19,6,41.93600384,-87.67205517,"(41.93600383822029, -87.6720551724929)"
1/10/2018,Completed,1/17/2018,18-00164858,Street Lights - All/Out,4035 W 25TH ST,60623,1149951.015,1887086.739,22,10,30,41.8460755,-87.72518343,"(41.84607550001984, -87.72518343073955)"
1/10/2018,Completed,1/17/2018,18-00165116,Street Lights - All/Out,2726 W 23RD ST,60608,1158548.613,1888617.455,12,10,30,41.85010455,-87.69358884,"(41.85010455096744, -87.69358883817752)"
1/10/2018,Completed,1/17/2018,18-00168060,Street Lights - All/Out,1925 E MARQUETTE DR,60637,1190218.961,1861896.205,5,3,42,41.77607361,-87.57821695,"(41.776073610912015, -87.57821694720687)"
1/10/2018,Completed,1/17/2018,18-00170372,Street Lights - All/Out,1510 W 71ST PL,60636,1167308.841,1857314.021,17,7,67,41.76402083,-87.6623344,"(41.76402083230885, -87.66233439842733)"
1/10/2018,Completed,1/17/2018,18-00172353,Street Lights - All/Out,7800 S SOUTH CHICAGO AVE,60619,1187760.752,1853422.262,5,4,45,41.75287924,-87.58749776,"(41.75287924246889, -87.58749776309743)"
1/10/2018,Completed,1/17/2018,18-00177234,Street Lights - All/Out,6731 S MORGAN ST,60621,1170804.07,1860188.854,6,7,68,41.7718342,-87.64943979,"(41.77183419719986, -87.6494397865913)"
1/10/2018,Completed,1/17/2018,18-00178136,Street Lights - All/Out,2600 S SPRINGFIELD AVE,60623,1150792.825,1886439.877,22,10,30,41.84428403,-87.72211092,"(41.84428403014394, -87.72211091648032)"
1/10/2018,Completed,1/17/2018,18-00182269,Street Lights - All/Out,3315 S LITUANICA AVE,60608,1170846.679,1882979.067,11,9,60,41.83437204,-87.64861808,"(41.83437204108098, -87.64861808153314)"
1/11/2018,Completed,1/17/2018,18-00185260,Street Lights - All/Out,5900 S STATE ST,60621,1177284.261,1865899.993,20,2,40,41.7873623,-87.62551328,"(41.78736229908703, -87.6255132760561)"
1/11/2018,Completed,1/17/2018,18-00185288,Street Lights - All/Out,200 W 71ST ST,60621,1176188.524,1857900.333,6,7,69,41.76543505,-87.62977081,"(41.76543505101808, -87.62977080987918)"
1/11/2018,Completed,1/17/2018,18-00186344,Street Lights - All/Out,5706 W NORTH AVE,60639,1138043,1910060.877,29,25,25,41.90934269,-87.76833063,"(41.90934268563747, -87.7683306286114)"
1/11/2018,Completed,1/17/2018,18-00186897,Street Lights - All/Out,305 S CENTRAL PARK BLVD,60624,1152434.117,1898422.431,28,11,27,41.87713333,-87.7157713,"(41.87713333012129, -87.71577130277215)"
1/11/2018,Completed,1/17/2018,18-00186930,Street Lights - All/Out,3400 W FILLMORE ST,60624,1153866.117,1895165.411,24,11,29,41.86816732,-87.71060014,"(41.868167324179076, -87.71060014257834)"
1/11/2018,Completed,1/17/2018,18-00186988,Street Lights - All/Out,5931 N OTTAWA AVE,60631,1124344.298,1938567.99,41,16,10,41.98780626,-87.81802505,"(41.98780626139941, -87.81802505289758)"
1/11/2018,Completed,1/17/2018,18-00187084,Street Lights - All/Out,42 N OGDEN AVE,60607,1166216.936,1900445.337,27,12,28,41.88240106,-87.66510698,"(41.88240105873543, -87.6651069793895)"
1/11/2018,Completed,1/17/2018,18-00194498,Street Lights - All/Out,4547 S ARCHER AVE,60632,1154265.426,1874242.455,14,8,58,41.81074422,-87.70969191,"(41.810744216779234, -87.70969191484343)"
1/11/2018,Completed,1/17/2018,18-00198647,Street Lights - All/Out,4812 S KARLOV AVE,60632,1149839.663,1872404.529,14,8,57,41.80578767,-87.72597301,"(41.805787665627705, -87.7259730091492)"
1/11/2018,Completed,1/17/2018,18-00200269,Street Lights - All/Out,3900 W 87TH ST,60652,1151922.473,1846586.783,18,8,70,41.73489899,-87.71901031,"(41.73489899038845, -87.71901031074043)"
1/11/2018,Completed,1/17/2018,18-00200964,Street Lights - All/Out,12846 S LOWE AVE,60628,1174328.591,1819578.486,9,5,53,41.66031597,-87.63772278,"(41.66031596638916, -87.63772277969247)"
1/11/2018,Completed,1/17/2018,18-00201870,Street Lights - All/Out,2256 W 19TH ST,60608,1161627.058,1890699.968,25,12,31,41.85575569,-87.68223248,"(41.85575568957865, -87.68223247757861)"
1/11/2018,Completed,1/17/2018,18-00202179,Street Lights - All/Out,8900 S GREENWOOD AVE,60619,1185102.784,1846189.63,8,4,47,41.73309496,-87.59746468,"(41.733094959121196, -87.59746467654251)"
1/11/2018,Completed,1/17/2018,18-00202554,Street Lights - All/Out,2136 W 115TH ST,60643,1164189.163,1828079.299,19,22,75,41.68386233,-87.67458875,"(41.68386232820513, -87.67458874709308)"
1/11/2018,Completed,1/17/2018,18-00204289,Street Lights - All/Out,1729 N MOZART ST,60647,1157148.63,1911603.496,1,14,24,41.91320897,-87.69810258,"(41.91320896569878, -87.69810257965524)"
1/11/2018,Completed,1/17/2018,18-00204339,Street Lights - All/Out,5152 S NEWLAND AVE,60638,1130924.87,1869624.01,23,8,56,41.79850326,-87.79541058,"(41.798503260459704, -87.79541057782724)"
1/11/2018,Completed,1/17/2018,18-00205694,Street Lights - All/Out,7046 S SOUTH CHICAGO AVE,60637,1182338.019,1858534.058,6,3,69,41.76703382,-87.60721157,"(41.76703381597582, -87.60721156668413)"
12/19/2017,Completed,1/18/2018,17-08464672,Street Lights - All/Out,3920 E FOREMAN DR,60617,1204005.611,1842612.157,10,4,52,41.72281378,-87.52833885,"(41.722813778661745, -87.52833885417878)"
1/18/2018,Completed - Dup,1/18/2018,18-00330528,Street Lights - All/Out,2512 N DRAKE AVE,60647,1152288.451,1916520.899,35,14,22,41.92680014,-87.71582781,"(41.926800136486634, -87.71582781282835)"
1/18/2018,Completed - Dup,1/18/2018,18-00332282,Street Lights - All/Out,10420 S LAWNDALE AVE,60655,1153512.874,1835263.227,19,22,74,41.7037938,-87.71348237,"(41.70379379522212, -87.71348236683316)"
1/16/2018,Completed - Dup,1/18/2018,18-00286982,Street Lights - All/Out,2528 N DRAKE AVE,60647,1152283.736,1916700.351,35,14,22,41.92729266,-87.71584039,"(41.92729266062581, -87.71584038971699)"
1/16/2018,Completed,1/18/2018,18-00287380,Street Lights - All/Out,3000 N RAVENSWOOD AVE,60657,1163821.34,1919954.881,32,19,5,41.93598746,-87.6733524,"(41.93598745516397, -87.67335239760607)"
1/16/2018,Completed,1/18/2018,18-00289463,Street Lights - All/Out,4259 S MICHIGAN AVE,60653,1177866.222,1876803.184,3,2,38,41.81726849,-87.62304914,"(41.81726849017215, -87.62304913759941)"
1/16/2018,Completed,1/18/2018,18-00289472,Street Lights - All/Out,4500 S INDIANA AVE,60653,1178352.309,1875265.03,3,2,38,41.81303663,-87.62131281,"(41.81303662578067, -87.62131280536481)"
1/16/2018,Completed,1/18/2018,18-00289717,Street Lights - All/Out,200 E 60TH ST,60637,1178625.906,1865274.505,20,2,40,41.78561548,-87.6206131,"(41.78561548426102, -87.6206130956763)"
1/16/2018,Completed,1/18/2018,18-00289801,Street Lights - All/Out,9900 S COTTAGE GROVE AVE,60628,1183141.57,1839489.69,9,5,49,41.71475532,-87.60485717,"(41.71475531882894, -87.60485716508582)"
1/16/2018,Completed,1/18/2018,18-00289814,Street Lights - All/Out,432 E 108TH ST,60628,1181160.37,1833442.863,9,5,49,41.6982078,-87.61229854,"(41.69820780267337, -87.6122985385535)"
1/16/2018,Completed,1/18/2018,18-00289826,Street Lights - All/Out,900 E 63RD ST,60637,1183532.16,1863433.349,20,3,42,41.78045018,-87.60268204,"(41.78045017878007, -87.60268203532293)"
1/16/2018,Completed,1/18/2018,18-00289908,Street Lights - All/Out,1149 E 63RD ST,60637,1184947.2,1863466.202,20,3,42,41.78050722,-87.59749329,"(41.780507218924484, -87.5974932902267)"
1/16/2018,Completed,1/18/2018,18-00291646,Street Lights - All/Out,4800 S DORCHESTER AVE,60615,1186373.449,1873452.266,4,2,39,41.80787614,-87.59194875,"(41.80787613779286, -87.59194875348848)"
1/16/2018,Completed,1/18/2018,18-00293187,Street Lights - All/Out,9045 S RACINE AVE,60620,1169911.533,1844804.639,21,22,73,41.72963728,-87.65315735,"(41.72963727978159, -87.65315735168005)"
1/16/2018,Completed,1/18/2018,18-00294350,Street Lights - All/Out,1459 W CORTEZ ST,60642,1166431.971,1907104.282,2,12,24,41.90066909,-87.66412667,"(41.90066909139223, -87.66412666695486)"
1/16/2018,Completed,1/18/2018,18-00298364,Street Lights - All/Out,1400 W LAWRENCE AVE,60640,1166154.649,1931986.306,47,20,3,41.9689526,-87.66443221,"(41.96895260034948, -87.66443220935886)"
1/16/2018,Completed,1/18/2018,18-00299960,Street Lights - All/Out,319 W 61ST ST,60621,1175124.213,1864502.793,20,7,68,41.78357676,-87.63347489,"(41.783576757790605, -87.63347488800619)"
1/16/2018,Completed,1/18/2018,18-00300091,Street Lights - All/Out,3152 N HONORE ST,60657,1163559.864,1921048.62,32,19,5,41.93899426,-87.67428244,"(41.93899425526989, -87.67428243967427)"
1/16/2018,Completed,1/18/2018,18-00300092,Street Lights - All/Out,5421 W 52ND ST,60638,1141016.017,1869612.498,14,8,56,41.79829242,-87.75840382,"(41.79829242213229, -87.75840382191684)"
1/16/2018,Completed,1/18/2018,18-00300845,Street Lights - All/Out,4938 W PALMER ST,60639,1142994.238,1914172.901,36,25,19,41.92053558,-87.750039,"(41.920535581250626, -87.75003899620631)"
1/16/2018,Completed,1/18/2018,18-00302118,Street Lights - All/Out,3000 N MANGO AVE,60634,1137523.345,1919362.947,30,25,19,41.93487799,-87.77001516,"(41.93487799202783, -87.77001516256827)"
1/16/2018,Completed,1/18/2018,18-00302349,Street Lights - All/Out,3705 W 107TH ST,60655,1153524.98,1833400.048,19,22,74,41.69868064,-87.71348714,"(41.69868063633612, -87.71348714196705)"
1/16/2018,Completed,1/18/2018,18-00304583,Street Lights - All/Out,918 W 32ND ST,60608,1170706.456,1883724.194,11,9,60,41.8364198,-87.64911082,"(41.836419801990395, -87.6491108153363)"
1/17/2018,Completed - Dup,1/18/2018,18-00317157,Street Lights - All/Out,3500 W JACKSON BLVD,60624,1153055.955,1898466.235,28,11,27,41.87724123,-87.71348692,"(41.87724123209013, -87.7134869150592)"
1/17/2018,Completed,1/18/2018,18-00307013,Street Lights - All/Out,926 W 37TH ST,60609,1170885.421,1880513.07,11,9,60,41.82760427,-87.64854806,"(41.82760426776469, -87.64854805500309)"
1/17/2018,Completed,1/18/2018,18-00309073,Street Lights - All/Out,1841 N HOWE ST,60614,1171660.3,1912289.903,43,18,7,41.9147852,-87.64476994,"(41.91478519518732, -87.6447699350465)"
1/17/2018,Completed,1/18/2018,18-00309199,Street Lights - All/Out,4700 S LOOMIS BLVD,60609,1167789.43,1873588.16,20,9,61,41.80866874,-87.66010587,"(41.80866874087499, -87.66010587304328)"
1/17/2018,Completed,1/18/2018,18-00309341,Street Lights - All/Out,2700 W 26TH ST,60608,1158780.58,1886657.668,24,10,30,41.84472193,-87.69279113,"(41.844721934741344, -87.69279112788557)"
1/17/2018,Completed,1/18/2018,18-00309481,Street Lights - All/Out,4027 W 50TH ST,60632,1150253.524,1871157.399,14,8,57,41.80235732,-87.72448751,"(41.80235732257944, -87.72448750870436)"
1/17/2018,Completed,1/18/2018,18-00309540,Street Lights - All/Out,200 E 61ST ST,60637,1178645.07,1864613.206,20,3,40,41.78380038,-87.62056293,"(41.78380037950713, -87.62056293086296)"
1/17/2018,Completed,1/18/2018,18-00309649,Street Lights - All/Out,2300 W GRACE ST,60618,1160357.861,1925185.723,47,19,5,41.95041366,-87.68593579,"(41.95041365882907, -87.68593578685557)"
1/17/2018,Completed,1/18/2018,18-00309653,Street Lights - All/Out,2400 N ASHLAND AVE,60614,1165268.618,1916017.215,32,19,7,41.92515158,-87.66814581,"(41.92515157985103, -87.66814581468773)"
1/17/2018,Completed,1/18/2018,18-00309676,Street Lights - All/Out,10610 S TORRENCE AVE,60617,1195537.742,1835166.484,10,4,51,41.70259525,-87.55960009,"(41.70259524572475, -87.55960009257171)"
1/17/2018,Completed,1/18/2018,18-00309778,Street Lights - All/Out,1000 W GRAND AVE,60642,1169680.39,1903654.71,27,12,24,41.89113309,-87.65229567,"(41.891133092024006, -87.65229567209046)"
1/17/2018,Completed,1/18/2018,18-00309779,Street Lights - All/Out,900 W HUBBARD ST,60642,1170327.62,1903270.04,27,12,24,41.89006341,-87.64992998,"(41.890063410441066, -87.64992997893977)"
1/17/2018,Completed,1/18/2018,18-00310283,Street Lights - All/Out,7223 S WESTERN AVE,60636,1161625.549,1856699.097,18,8,66,41.76245316,-87.68318213,"(41.762453162947835, -87.6831821254052)"
1/17/2018,Completed,1/18/2018,18-00310295,Street Lights - All/Out,4230 S ASHLAND AVE,60609,1166385,1876589.521,12,9,61,41.81693488,-87.66517143,"(41.816934881542515, -87.66517143054753)"
1/17/2018,Completed,1/18/2018,18-00310926,Street Lights - All/Out,200 S KEDZIE AVE,60612,1155079.607,1898892.128,28,11,27,41.87836958,-87.70604517,"(41.878369581908515, -87.70604517266472)"
1/17/2018,Completed,1/18/2018,18-00311027,Street Lights - All/Out,4399 W GRAND AVE,60651,1146972.748,1910275.925,26,25,23,41.9097667,-87.73552081,"(41.909766702667945, -87.73552081013304)"
1/17/2018,Completed,1/18/2018,18-00312576,Street Lights - All/Out,2601 S KEDZIE AVE,60623,1155443.688,1886551.828,12,10,30,41.84449914,-87.70503993,"(41.84449914003897, -87.70503993125772)"
1/17/2018,Completed,1/18/2018,18-00312810,Street Lights - All/Out,7229 N OCTAVIA AVE,60631,1126719.831,1947466.318,41,16,9,42.01218455,-87.8090871,"(42.012184549772954, -87.80908709946569)"
1/17/2018,Completed,1/18/2018,18-00314097,Street Lights - All/Out,9537 S MUSKEGON AVE,60617,1196671.49,1842260.716,10,4,51,41.72203445,-87.55521394,"(41.72203444809288, -87.55521393569586)"
1/17/2018,Completed,1/18/2018,18-00315738,Street Lights - All/Out,3400 W 87TH ST,60652,1155224.072,1846688.729,18,8,70,41.73511344,-87.7069118,"(41.73511344129014, -87.70691179610318)"
1/17/2018,Completed,1/18/2018,18-00317411,Street Lights - All/Out,5349 S MULLIGAN AVE,60638,1134951.199,1868435.593,23,8,56,41.79517194,-87.78067289,"(41.7951719442339, -87.78067288921672)"
1/17/2018,Completed,1/18/2018,18-00319466,Street Lights - All/Out,3948 W 107TH ST,60655,1151794.79,1833350.497,19,22,74,41.69857866,-87.71982364,"(41.69857865540193, -87.71982364131813)"
1/17/2018,Completed,1/18/2018,18-00319490,Street Lights - All/Out,10305 S HAMLIN AVE,60655,1152817.946,1836020.52,19,22,74,41.70588565,-87.71600722,"(41.70588564810889, -87.71600721582655)"
1/17/2018,Completed,1/18/2018,18-00323543,Street Lights - All/Out,10320 S LAWNDALE AVE,60655,1153488.446,1835936.296,19,22,74,41.7056413,-87.71355408,"(41.70564130486808, -87.71355408034125)"
1/17/2018,Completed,1/18/2018,18-00323602,Street Lights - All/Out,8732 S SANGAMON ST,60620,1171502.215,1846928.771,21,22,71,41.73543155,-87.64726822,"(41.735431551979865, -87.64726822447145)"
1/11/2018,Completed,1/18/2018,18-00182726,Street Lights - All/Out,313 E GARFIELD BLVD,60637,1179119.124,1868491.164,3,2,40,41.79443107,-87.61870671,"(41.79443106893845, -87.61870671137791)"
1/11/2018,Completed,1/18/2018,18-00185254,Street Lights - All/Out,5399 S WENTWORTH AVE,60609,1175883.099,1869142.738,3,2,37,41.79629226,-87.6305535,"(41.79629225946839, -87.63055350417987)"
1/11/2018,Completed,1/18/2018,18-00185421,Street Lights - All/Out,11900 S AVENUE O,60617,1200952.518,1826644.475,10,4,55,41.67907485,-87.54006043,"(41.679074853529485, -87.54006042513613)"
1/11/2018,Completed,1/18/2018,18-00185694,Street Lights - All/Out,5200 S KEDZIE AVE,60632,1155926.569,1869972.299,14,8,63,41.79899309,-87.70371369,"(41.79899308859948, -87.70371368764175)"
1/11/2018,Completed,1/18/2018,18-00202109,Street Lights - All/Out,5819 W HIGGINS AVE,60630,1136304.203,1932916.519,45,16,11,41.97209224,-87.77417062,"(41.97209224006012, -87.77417062364185)"
1/11/2018,Completed,1/18/2018,18-00203262,Street Lights - All/Out,9983 S THROOP ST,60643,1169175.8,1838301.485,34,22,73,41.71180757,-87.65603997,"(41.71180757131545, -87.65603996934924)"
1/12/2018,Completed - Dup,1/18/2018,18-00219298,Street Lights - All/Out,8800 S BUFFALO AVE,60617,1199570.982,1847246.221,10,4,46,41.73564265,-87.54442643,"(41.735642653524685, -87.54442642970544)"
1/12/2018,Completed,1/18/2018,18-00208938,Street Lights - All/Out,100 E MARQUETTE RD,60637,1178242.67,1860617.772,20,3,69,41.77284564,-87.62215941,"(41.77284564115448, -87.6221594108074)"
1/12/2018,Completed,1/18/2018,18-00209291,Street Lights - All/Out,5100 S PULASKI RD,60632,1150562.097,1870499.39,23,8,57,41.80054564,-87.72337295,"(41.800545644351246, -87.72337294935728)"
1/12/2018,Completed,1/18/2018,18-00209322,Street Lights - All/Out,10700 S VERNON AVE,60628,1181141.074,1834105.872,9,5,49,41.70002763,-87.61234887,"(41.700027631240374, -87.61234886927397)"
1/12/2018,Completed,1/18/2018,18-00209455,Street Lights - All/Out,10000 S COTTAGE GROVE AVE,60628,1183033.341,1838820.291,9,5,49,41.71292092,-87.60527427,"(41.712920916659634, -87.60527427323548)"
1/12/2018,Completed,1/18/2018,18-00209619,Street Lights - All/Out,3547 W JACKSON BLVD,60624,1152760.355,1898458.935,28,11,27,41.87722705,-87.71457247,"(41.87722705311327, -87.71457247450647)"
1/12/2018,Completed,1/18/2018,18-00211017,Street Lights - All/Out,2600 N PULASKI RD,60639,1149278.651,1916984.678,31,25,22,41.92813173,-87.72687553,"(41.928131733950565, -87.72687552876992)"
1/12/2018,Completed,1/18/2018,18-00216568,Street Lights - All/Out,9700 S AVENUE M,60617,1201459.978,1841384.596,10,4,52,41.7195102,-87.53770454,"(41.71951019974489, -87.53770453569244)"
1/12/2018,Completed,1/18/2018,18-00216691,Street Lights - All/Out,4959 S KOMENSKY AVE,60632,1150202.524,1871428.699,14,8,57,41.8031028,-87.7246675,"(41.80310280104952, -87.72466750374781)"
1/12/2018,Completed,1/18/2018,18-00219115,Street Lights - All/Out,8800 S BURLEY AVE,60617,1199196.806,1847233.8,10,4,46,41.73561797,-87.54579765,"(41.73561797359868, -87.54579765028033)"
1/12/2018,Completed,1/18/2018,18-00224026,Street Lights - All/Out,1232 N GREENVIEW AVE,60642,1166167.92,1908299.079,2,14,24,41.90395334,-87.66506235,"(41.90395334487147, -87.66506234983684)"
1/12/2018,Completed,1/18/2018,18-00226247,Street Lights - All/Out,3324 W 26TH ST,60623,1154524.168,1886534.724,12,10,30,41.84447061,-87.7084149,"(41.844470614283566, -87.70841490060751)"
1/13/2018,Completed - Dup,1/18/2018,18-00241560,Street Lights - All/Out,10216 S PARNELL AVE,60628,1174437.161,1837149.873,9,22,73,41.7085322,-87.63680563,"(41.7085321990059, -87.63680562832135)"
1/13/2018,Completed,1/18/2018,18-00232961,Street Lights - All/Out,2000 N AVERS AVE,60647,1150391.57,1913011.582,26,25,22,41.91720753,-87.72288986,"(41.91720752802052, -87.72288985846706)"
1/13/2018,Completed,1/18/2018,18-00241221,Street Lights - All/Out,6124 N KEELER AVE,60646,1147250.376,1940372.675,39,17,12,41.99234932,-87.73372739,"(41.99234932065554, -87.73372739153446)"
1/13/2018,Completed,1/18/2018,18-00242675,Street Lights - All/Out,1300 W 98TH ST,60643,1169383.941,1839801.47,21,22,73,41.71591926,-87.65523444,"(41.71591926454926, -87.65523443661803)"
1/13/2018,Completed,1/18/2018,18-00243114,Street Lights - All/Out,1000 N AVERS AVE,60651,1150536.694,1906396.342,37,11,23,41.89905184,-87.72252974,"(41.89905183913158, -87.72252973818445)"
1/13/2018,Completed,1/18/2018,18-00243159,Street Lights - All/Out,10600 S CHURCH ST,60643,1168106.942,1834403.712,19,22,72,41.70113447,-87.66006602,"(41.701134466410714, -87.66006601764839)"
1/13/2018,Completed,1/18/2018,18-00244376,Street Lights - All/Out,300 W 37TH ST,60609,1174894.657,1880421.601,11,9,34,41.82726463,-87.63384152,"(41.82726463282184, -87.63384152213924)"
1/13/2018,Completed,1/18/2018,18-00244761,Street Lights - All/Out,2033 N SHEFFIELD AVE,60614,1169303.359,1913701.763,43,18,7,41.91871101,-87.65338785,"(41.918711014617685, -87.65338784678504)"
1/13/2018,Completed,1/18/2018,18-00245326,Street Lights - All/Out,10527 S CHURCH ST,60643,1168173.762,1834835.77,19,22,72,41.70231867,-87.65980897,"(41.70231867037064, -87.65980897465252)"
1/13/2018,Completed,1/18/2018,18-00245412,Street Lights - All/Out,1256 W WASHBURNE AVE,60608,1168187.851,1894527.839,25,12,28,41.86612064,-87.65804074,"(41.86612064421154, -87.65804074003366)"
1/14/2018,Completed,1/18/2018,18-00246005,Street Lights - All/Out,10207 S PARNELL AVE,60628,1174435.461,1837210.673,9,22,73,41.70869908,-87.63681005,"(41.70869908074625, -87.63681005285176)"
1/14/2018,Completed,1/18/2018,18-00246961,Street Lights - All/Out,3237 S LITUANICA AVE,60608,1170835.681,1883396.165,11,9,60,41.83551684,-87.64864624,"(41.83551683500296, -87.64864623731691)"
1/14/2018,Completed,1/18/2018,18-00254821,Street Lights - All/Out,9200 S PEORIA ST,60620,1171931.29,1843794.394,21,22,73,41.72682099,-87.64578799,"(41.726820990634536, -87.64578799026488)"
1/14/2018,Completed,1/18/2018,18-00258639,Street Lights - All/Out,499 N CARPENTER ST,60642,1169362.873,1903647.538,27,12,24,41.89112032,-87.65346196,"(41.891120321433704, -87.65346195923344)"
1/15/2018,Completed,1/18/2018,18-00268664,Street Lights - All/Out,75 E 43RD ST,60653,1177676.722,1876531.684,3,2,38,41.81652777,-87.62375249,"(41.816527767319045, -87.62375249413874)"
1/15/2018,Completed,1/18/2018,18-00277977,Street Lights - All/Out,4900 S KILBOURN AVE,60632,1147188.004,1871735.47,14,8,57,41.80400268,-87.73571548,"(41.804002675000376, -87.73571547975848)"
1/9/2018,Completed,1/18/2018,18-00149577,Street Lights - All/Out,1843 S RIDGEWAY AVE,60623,1151658.648,1890793.629,24,10,29,41.8562143,-87.71881913,"(41.85621430462195, -87.71881913012943)"
1/10/2018,Completed,1/18/2018,18-00165500,Street Lights - All/Out,300 S CENTRAL PARK BLVD,60624,1152433.217,1898450.931,28,11,27,41.87721155,-87.71577385,"(41.87721155495535, -87.71577385438707)"
1/10/2018,Completed,1/18/2018,18-00172356,Street Lights - All/Out,6540 S BELL AVE,60636,1162528.961,1861237.248,16,8,66,41.7748877,-87.67974458,"(41.77488770218634, -87.67974457953746)"
1/10/2018,Completed,1/18/2018,18-00180108,Street Lights - All/Out,1739 N HUDSON AVE,60614,1172989.33,1912005.35,43,18,7,41.91397498,-87.63989575,"(41.91397498485011, -87.63989574763943)"
12/27/2017,Completed,1/19/2018,17-08615487,Street Lights - All/Out,7042 S ARTESIAN AVE,60629,1161258.352,1857888.954,17,8,66,41.76572591,-87.68449507,"(41.765725910436956, -87.6844950703766)"
1/18/2018,Completed - Dup,1/19/2018,18-00330839,Street Lights - All/Out,4400 N MCVICKER AVE,60630,1135224.988,1928624.723,38,16,15,41.9603344,-87.77824138,"(41.96033440046085, -87.77824138096676)"
1/18/2018,Completed - Dup,1/19/2018,18-00334988,Street Lights - All/Out,49 N PARKSIDE AVE,60644,1138599.444,1899808.519,29,15,25,41.88119887,-87.76653528,"(41.881198867548086, -87.76653527668307)"
1/18/2018,Completed - Dup,1/19/2018,18-00340226,Street Lights - All/Out,1250 W 50TH ST,60609,1168747.81,1871621.083,20,9,61,41.80325021,-87.65664755,"(41.80325021046466, -87.65664755050706)"
1/18/2018,Completed,1/19/2018,18-00329040,Street Lights - All/Out,4400 N MEADE AVE,60630,1134892.401,1928616.333,38,16,15,41.96031728,-87.77946435,"(41.96031728462312, -87.77946435110155)"
1/18/2018,Completed,1/19/2018,18-00329912,Street Lights - All/Out,1246 W 50TH ST,60609,1168767.61,1871621.583,20,9,61,41.80325115,-87.65657492,"(41.80325115473687, -87.65657492015362)"
1/18/2018,Completed,1/19/2018,18-00329982,Street Lights - All/Out,1200 W 110TH PL,60643,1170295.053,1831511.226,34,22,75,41.6931498,-87.65213766,"(41.693149804814524, -87.65213766445949)"
1/18/2018,Completed,1/19/2018,18-00330452,Street Lights - All/Out,5411 S DORCHESTER AVE,60615,1186461.75,1869759.202,5,2,41,41.79774001,-87.59174176,"(41.79774001083722, -87.59174175973966)"
1/18/2018,Completed,1/19/2018,18-00330496,Street Lights - All/Out,3600 S SANGAMON ST,60609,1170678.884,1880886.202,11,9,60,41.82863269,-87.64929491,"(41.828632692919385, -87.64929491236053)"
1/18/2018,Completed,1/19/2018,18-00330993,Street Lights - All/Out,2400 N CICERO AVE,60639,1144002.101,1915529.45,31,25,19,41.92423922,-87.74630174,"(41.924239215371756, -87.74630174257703)"
1/18/2018,Completed,1/19/2018,18-00331041,Street Lights - All/Out,404 N LAWLER AVE,60644,1142630.13,1902284.133,37,15,25,41.88791825,-87.75167301,"(41.887918250742715, -87.75167300831042)"
1/18/2018,Completed,1/19/2018,18-00333753,Street Lights - All/Out,5113 S CICERO AVE,60632,1145223.865,1870308.204,14,8,56,41.80012328,-87.74295506,"(41.80012328300248, -87.7429550599945)"
1/18/2018,Completed,1/19/2018,18-00334880,Street Lights - All/Out,5534 S PEORIA ST,60621,1171251.715,1868052.502,16,7,68,41.79340318,-87.64756898,"(41.793403178128145, -87.64756897589434)"
1/18/2018,Completed,1/19/2018,18-00336051,Street Lights - All/Out,10500 S DRAKE AVE,60655,1154529.243,1834768.327,19,22,74,41.70241556,-87.7097737,"(41.702415559966326, -87.70977369715233)"
1/18/2018,Completed,1/19/2018,18-00338077,Street Lights - All/Out,5230 S CORNELL AVE,60615,1188044.158,1870825.89,5,2,41,41.80062947,-87.5859049,"(41.80062946972624, -87.58590489584559)"
1/18/2018,Completed,1/19/2018,18-00338399,Street Lights - All/Out,900 E 63RD ST,60637,1183532.16,1863433.349,20,3,42,41.78045018,-87.60268204,"(41.78045017878007, -87.60268203532293)"
1/18/2018,Completed,1/19/2018,18-00339610,Street Lights - All/Out,1521 S KEDZIE AVE,60623,1155275.262,1892396.14,24,10,29,41.86053998,-87.70550122,"(41.86053997775972, -87.70550121864459)"
1/18/2018,Completed,1/19/2018,18-00339692,Street Lights - All/Out,1000 E 63RD ST,60637,1183972.38,1863443.502,20,3,42,41.78046776,-87.60106782,"(41.780467763708494, -87.60106781573198)"
1/18/2018,Completed,1/19/2018,18-00343354,Street Lights - All/Out,5700 N CALDWELL AVE,60646,1145351.714,1937763.468,39,17,12,41.98522575,-87.74077777,"(41.98522574937085, -87.74077776777013)"
1/18/2018,Completed,1/19/2018,18-00343390,Street Lights - All/Out,4000 W DEVON AVE,0,1148547.634,1942163.693,0,17,0,41.99723895,-87.72890911,"(41.997238954959926, -87.72890910862448)"
1/19/2018,Completed - Dup,1/19/2018,18-00349029,Street Lights - All/Out,6934 S CORNELL AVE,60649,1188548.8,1859337.03,5,3,43,41.7690911,-87.58442122,"(41.76909110354618, -87.58442122239465)"
1/19/2018,Completed,1/19/2018,18-00348926,Street Lights - All/Out,9023 S GREEN ST,60620,1172249.937,1844762.275,21,22,71,41.72947,-87.64459238,"(41.729469999077445, -87.64459238071676)"
1/19/2018,Completed,1/19/2018,18-00348939,Street Lights - All/Out,9023 S GREENWOOD AVE,60619,1185123.992,1845374.801,8,4,47,41.73085848,-87.59741251,"(41.73085848036783, -87.59741250545156)"
1/19/2018,Completed,1/19/2018,18-00348972,Street Lights - All/Out,4400 S ASHLAND AVE,60609,1166410.123,1875542.036,15,9,61,41.81405993,-87.66510915,"(41.81405993216662, -87.66510915206459)"
1/19/2018,Completed,1/19/2018,18-00349372,Street Lights - All/Out,4700 W IRVING PARK RD,60641,1144125.7,1926173.579,45,17,15,41.95344537,-87.74557943,"(41.953445373395446, -87.74557942780993)"
1/14/2018,Completed,1/19/2018,18-00257851,Street Lights - All/Out,1726 W BERWYN AVE,60640,1163873.031,1935248.158,40,20,77,41.97795182,-87.67272916,"(41.97795182159801, -87.67272916297259)"
1/14/2018,Completed,1/19/2018,18-00259038,Street Lights - All/Out,1348 W ESTES AVE,60626,1166060.003,1947523.211,49,24,1,42.01158829,-87.66433394,"(42.01158829286183, -87.66433394223765)"
1/15/2018,Completed,1/19/2018,18-00263068,Street Lights - All/Out,3700 S HALSTED ST,60609,1171571.133,1880507.34,11,9,60,41.82757352,-87.64603245,"(41.82757351844179, -87.64603244876356)"
1/15/2018,Completed,1/19/2018,18-00269848,Street Lights - All/Out,1101 N AUSTIN BLVD,60651,1136167.026,1906705.592,29,15,25,41.90016907,-87.77530242,"(41.900169071015554, -87.77530242445141)"
1/15/2018,Completed,1/19/2018,18-00270562,Street Lights - All/Out,1911 W 83RD ST,60620,1165013.104,1849625.322,21,6,71,41.74297078,-87.6709658,"(41.74297078092714, -87.67096579591278)"
1/15/2018,Completed,1/19/2018,18-00275521,Street Lights - All/Out,2200 W 50TH PL,60609,1162411.36,1871146.99,15,9,63,41.80208378,-87.67989959,"(41.80208378291234, -87.67989959163035)"
1/15/2018,Completed,1/19/2018,18-00276454,Street Lights - All/Out,2432 W 71ST ST,60629,1161269.001,1857507.712,17,8,66,41.76467951,-87.68446658,"(41.76467950693159, -87.68446657940005)"
1/16/2018,Completed - Dup,1/19/2018,18-00297716,Street Lights - All/Out,2223 W 50TH PL,60609,1162290.36,1871143.99,15,9,63,41.80207807,-87.68034343,"(41.80207807389446, -87.68034343322023)"
1/16/2018,Completed,1/19/2018,18-00282747,Street Lights - All/Out,11800 S TORRENCE AVE,60617,1195681.069,1827288.524,10,4,51,41.68097376,-87.55933448,"(41.68097375969054, -87.55933447996652)"
1/16/2018,Completed,1/19/2018,18-00285864,Street Lights - All/Out,431 N ASHLAND AVE,60622,1165652.877,1903091.584,27,12,24,41.8896746,-87.66710276,"(41.88967459775429, -87.6671027623977)"
1/16/2018,Completed,1/19/2018,18-00287263,Street Lights - All/Out,1700 S LEAVITT ST,60608,1161980.71,1891544.42,25,12,31,41.85806558,-87.68091085,"(41.858065582006994, -87.68091084996105)"
1/16/2018,Completed,1/19/2018,18-00287316,Street Lights - All/Out,1900 S OAKLEY AVE,60608,1161337.758,1890690.968,25,12,31,41.85573701,-87.6832946,"(41.85573700762469, -87.68329459989364)"
